,address,bathrooms,country,detailedType,district,exterior,externalReference,floor,has3DTour,hasLift,hasPlan,hasVideo,latitude,longitude,municipality,neighborhood,newDevelopment,newDevelopmentFinished,numPhotos,operation,parkingSpace,price,priceByArea,propertyCode,propertyType,province,rooms,showAddress,size,status,suggestedTexts,thumbnail,url
0,barrio Ciudad Universitaria,1,es,{u'typology': u'flat'},Moncloa,True,01495,5,False,True,False,True,40.4483121,-3.7169909,Madrid,Ciudad Universitaria,False,,17,rent,"{u'parkingSpacePrice': 80.0, u'hasParkingSpace': True, u'isParkingSpaceIncludedInPrice': False}",1600.0,16.0,38312706,flat,Madrid,2,False,100.0,good,"{u'subtitle': u'Ciudad Universitaria, Madrid', u'title': u'Piso'}",https://img3.idealista.com/blur/WEB_LISTING/0/id.pro.es.image.master/22/e6/05/234310610.jpg,http://www.idealista.com/38312706
1,"calle Conde de Duque, 6",1,es,"{u'subTypology': u'studio', u'typology': u'flat'}",Centro,False,,3,False,True,False,False,40.4259124,-3.7112657,Madrid,Malasaña-Universidad,False,,28,rent,,800.0,32.0,38312999,studio,Madrid,0,True,25.0,good,"{u'subtitle': u'Malasaña-Universidad, Madrid', u'title': u'Estudio en calle Conde de Duque, 6'}",https://img3.idealista.com/blur/WEB_LISTING/0/id.pro.es.image.master/22/be/d5/234312490.jpg,http://www.idealista.com/38312999
2,barrio Bernabéu-Hispanoamérica,3,es,{u'typology': u'flat'},Chamartín,True,01494,3,False,True,False,True,40.457164,-3.6807362,Madrid,Bernabéu-Hispanoamérica,False,,22,rent,"{u'hasParkingSpace': True, u'isParkingSpaceIncludedInPrice': True}",2400.0,13.0,38302487,flat,Madrid,4,False,180.0,good,"{u'subtitle': u'Bernabéu-Hispanoamérica, Madrid', u'title': u'Piso'}",https://img3.idealista.com/blur/WEB_LISTING/0/id.pro.es.image.master/f4/a4/3a/234306969.jpg,http://www.idealista.com/38302487
3,"calle de la infanta mercedes, 62",1,es,{u'typology': u'flat'},Tetuán,False,,3,False,True,False,False,40.4602963,-3.6963123,Madrid,Cuzco-Castillejos,False,,25,rent,,950.0,24.0,33858989,flat,Madrid,1,True,40.0,good,"{u'subtitle': u'Cuzco-Castillejos, Madrid', u'title': u'Piso en calle de la infanta mercedes, 62'}",https://img3.idealista.com/blur/WEB_LISTING/0/id.pro.es.image.master/b9/6f/bf/154013684.jpg,http://www.idealista.com/33858989
4,calle Castelló,2,es,{u'typology': u'flat'},Salamanca,True,ACC20817,5,False,True,False,False,40.4309734,-3.6806357,Madrid,Castellana,False,,20,rent,,2250.0,19.0,38312846,flat,Madrid,2,False,120.0,good,"{u'subtitle': u'Castellana, Madrid', u'title': u'Piso en calle Castelló'}",https://img3.idealista.com/blur/WEB_LISTING/0/id.pro.es.image.master/db/0d/e5/234310222.jpg,http://www.idealista.com/38312846
5,barrio Chueca-Justicia,1,es,{u'typology': u'flat'},Centro,True,,1,False,True,False,False,40.4215215,-3.6938446,Madrid,Chueca-Justicia,False,,2,rent,,1500.0,16.0,38312915,flat,Madrid,1,False,93.0,good,"{u'subtitle': u'Chueca-Justicia, Madrid', u'title': u'Piso'}",https://img3.idealista.com/blur/WEB_LISTING/0/id.pro.es.image.master/9d/47/6f/234315243.jpg,http://www.idealista.com/38312915
6,paseo de la Castellana,2,es,{u'typology': u'flat'},Tetuán,True,,7,False,True,False,False,40.4564839,-3.692053,Madrid,Cuatro Caminos,False,,14,rent,"{u'hasParkingSpace': True, u'isParkingSpaceIncludedInPrice': True}",1500.0,17.0,38312903,flat,Madrid,2,False,90.0,good,"{u'subtitle': u'Cuatro Caminos, Madrid', u'title': u'Piso en paseo de la Castellana'}",https://img3.idealista.com/blur/WEB_LISTING/0/id.pro.es.image.master/a4/d2/f3/234311082.jpg,http://www.idealista.com/38312903
7,"calle Bernardino Obregón, 19",1,es,{u'typology': u'flat'},Arganzuela,True,,2,False,True,False,False,40.4031206,-3.6991813,Madrid,Palos de Moguer,False,,3,rent,,875.0,18.0,38312887,flat,Madrid,1,True,50.0,good,"{u'subtitle': u'Palos de Moguer, Madrid', u'title': u'Piso en calle Bernardino Obregón, 19'}",https://img3.idealista.com/blur/WEB_LISTING/0/id.pro.es.image.master/a5/a2/80/234310510.jpg,http://www.idealista.com/38312887
8,Centro,1,es,{u'typology': u'flat'},Centro,True,,1,False,False,False,False,40.6571531,-3.7682137,Colmenar Viejo,,False,,17,rent,"{u'hasParkingSpace': True, u'isParkingSpaceIncludedInPrice': True}",650.0,9.0,38312861,flat,Madrid,2,False,70.0,good,"{u'subtitle': u'Centro, Colmenar Viejo', u'title': u'Piso'}",https://img3.idealista.com/blur/WEB_LISTING/90/id.pro.es.image.master/e2/4a/f9/234309993.jpg,http://www.idealista.com/38312861
9,barrio El Viso,2,es,{u'typology': u'flat'},Chamartín,True,1765,2,False,True,False,False,40.4469286,-3.6845523,Madrid,El Viso,False,,34,rent,,2500.0,26.0,38310054,flat,Madrid,2,False,95.0,good,"{u'subtitle': u'El Viso, Madrid', u'title': u'Piso'}",https://img3.idealista.com/blur/WEB_LISTING/0/id.pro.es.image.master/1d/e7/70/234309981.jpg,http://www.idealista.com/38310054
10,principe de Vergara,1,es,{u'typology': u'flat'},Chamartín,True,,1,False,True,False,False,40.4586753,-3.6762622,Madrid,Bernabéu-Hispanoamérica,False,,19,rent,,1380.0,20.0,38312817,flat,Madrid,2,False,70.0,good,"{u'subtitle': u'Bernabéu-Hispanoamérica, Madrid', u'title': u'Piso en principe de Vergara'}",https://img3.idealista.com/blur/WEB_LISTING/0/id.pro.es.image.master/ae/6f/0b/234309355.jpg,http://www.idealista.com/38312817
11,plaza del conde del valle de súchil s/n,3,es,{u'typology': u'flat'},Chamberí,False,50220,6,False,True,False,False,40.4315464,-3.7072903,Madrid,Arapiles,False,,13,rent,,1950.0,12.0,38312855,flat,Madrid,4,True,160.0,,"{u'subtitle': u'Arapiles, Madrid', u'title': u'Piso en plaza del conde del valle de súchil s/n'}",https://img3.idealista.com/blur/WEB_LISTING/0/id.pro.es.image.master/1f/f6/52/234309817.jpg,http://www.idealista.com/38312855
12,"calle de bravo murillo, 36",2,es,{u'typology': u'flat'},Chamberí,False,50216,6,False,True,False,False,40.4377678,-3.7040702,Madrid,Trafalgar,False,,22,rent,,1900.0,14.0,38312854,flat,Madrid,4,True,133.0,,"{u'subtitle': u'Trafalgar, Madrid', u'title': u'Piso en calle de bravo murillo, 36'}",https://img3.idealista.com/blur/WEB_LISTING/0/id.pro.es.image.master/29/0e/00/234309793.jpg,http://www.idealista.com/38312854
13,barrio Fuente del Berro,1,es,{u'typology': u'flat'},Salamanca,True,C 366,2,False,True,False,False,40.4291461,-3.6630603,Madrid,Fuente del Berro,False,,12,rent,,1200.0,13.0,38312798,flat,Madrid,2,False,90.0,good,"{u'subtitle': u'Fuente del Berro, Madrid', u'title': u'Piso'}",https://img3.idealista.com/blur/WEB_LISTING/0/id.pro.es.image.master/39/66/9b/234308862.jpg,http://www.idealista.com/38312798
14,barrio Argüelles,3,es,"{u'subTypology': u'penthouse', u'typology': u'flat'}",Moncloa,True,AM1710004,6,False,True,False,False,40.429984,-3.7179061,Madrid,Argüelles,False,,31,rent,,2800.0,22.0,38312758,penthouse,Madrid,4,False,127.0,good,"{u'subtitle': u'Argüelles, Madrid', u'title': u'Ático'}",https://img3.idealista.com/blur/WEB_LISTING/0/id.pro.es.image.master/48/83/47/234308128.jpg,http://www.idealista.com/38312758
15,calle Claudio Coello,1,es,{u'typology': u'flat'},Salamanca,False,e75.c.coel4º1dorm.,4,False,True,False,True,40.4235315,-3.686773,Madrid,Recoletos,False,,11,rent,"{u'parkingSpacePrice': 180.0, u'hasParkingSpace': True, u'isParkingSpaceIncludedInPrice': False}",1150.0,19.0,26394327,flat,Madrid,1,False,60.0,good,"{u'subtitle': u'Recoletos, Madrid', u'title': u'Piso en calle Claudio Coello'}",https://img3.idealista.com/blur/WEB_LISTING/0/id.pro.es.image.master/c8/d9/55/41554060.jpg,http://www.idealista.com/26394327
16,calle de Cristóbal Bordiú,2,es,{u'typology': u'flat'},Chamberí,True,EV-CRISTOBAL1300,6,False,True,False,True,40.4435966,-3.6962349,Madrid,Nuevos Ministerios-Ríos Rosas,False,,35,rent,,1300.0,14.0,38309793,flat,Madrid,3,False,90.0,good,"{u'subtitle': u'Nuevos Ministerios-Ríos Rosas, Madrid', u'title': u'Piso en calle de Cristóbal Bordiú'}",https://img3.idealista.com/blur/WEB_LISTING/0/id.pro.es.image.master/57/fc/b0/234306813.jpg,http://www.idealista.com/38309793
17,carniceria,2,es,"{u'subTypology': u'duplex', u'typology': u'flat'}",,True,SV-1404PDARH,2,False,True,False,False,40.7847128,-3.6904567,Guadalix de la Sierra,,False,,28,rent,,700.0,5.0,34133527,duplex,Madrid,3,False,140.0,good,"{u'subtitle': u'Guadalix de la Sierra', u'title': u'Dúplex en carniceria'}",https://img3.idealista.com/blur/WEB_LISTING/0/id.pro.es.image.master/d1/e2/ff/141382151.jpg,http://www.idealista.com/34133527
18,"c. norte, 20",3,es,"{u'subTypology': u'terracedHouse', u'typology': u'chalet'}",,False,,,False,,False,False,40.9435385,-3.660741,Garganta de los Montes,,False,,18,rent,"{u'hasParkingSpace': True, u'isParkingSpaceIncludedInPrice': True}",1000.0,5.0,31129781,chalet,Madrid,3,True,195.0,good,"{u'subtitle': u'Garganta de los Montes', u'title': u'Chalet adosado en c. norte, 20'}",https://img3.idealista.com/blur/WEB_LISTING/0/id.pro.es.image.master/91/74/20/112115818.jpg,http://www.idealista.com/31129781
19,calle Velayos,2,es,{u'typology': u'flat'},Moncloa,True,A6810112,2,False,True,False,False,40.4670083,-3.7266274,Madrid,Ciudad Universitaria,False,,35,rent,,2100.0,11.0,38312620,flat,Madrid,5,False,190.0,good,"{u'subtitle': u'Ciudad Universitaria, Madrid', u'title': u'Piso en calle Velayos'}",https://img3.idealista.com/blur/WEB_LISTING/0/id.pro.es.image.master/2c/55/54/234305938.jpg,http://www.idealista.com/38312620
20,"calle San Esteban Ur Cantagallo, 12",3,es,"{u'subTypology': u'independantHouse', u'typology': u'chalet'}",,False,,,False,,False,False,40.81764,-3.75556,Miraflores de la Sierra,,False,,36,rent,,1500.0,5.0,37517435,chalet,Madrid,4,True,320.0,good,"{u'subtitle': u'Miraflores de la Sierra', u'title': u'Casa independiente en calle San Esteban Ur Cantagallo, 12'}",https://img3.idealista.com/blur/WEB_LISTING/0/id.pro.es.image.master/31/b8/f1/210744906.jpg,http://www.idealista.com/37517435
21,calle Jaén,1,es,{u'typology': u'flat'},Tetuán,True,6810114,3,False,False,False,False,40.4501876,-3.7012616,Madrid,Cuatro Caminos,False,,8,rent,,720.0,18.0,38312713,flat,Madrid,1,False,40.0,good,"{u'subtitle': u'Cuatro Caminos, Madrid', u'title': u'Piso en calle Jaén'}",https://img3.idealista.com/blur/WEB_LISTING/0/id.pro.es.image.master/3d/6f/92/234307518.jpg,http://www.idealista.com/38312713
22,san Vicente Ferrer,1,es,{u'typology': u'flat'},Centro,True,TribunalA,3,False,True,False,False,40.426663,-3.7049294,Madrid,Malasaña-Universidad,False,,6,rent,,990.0,15.0,38312715,flat,Madrid,2,False,65.0,good,"{u'subtitle': u'Malasaña-Universidad, Madrid', u'title': u'Piso en san Vicente Ferrer'}",https://img3.idealista.com/blur/WEB_LISTING/0/id.pro.es.image.master/5f/58/be/234307466.jpg,http://www.idealista.com/38312715
23,"calle de San Pedro, 3",1,es,"{u'subTypology': u'independantHouse', u'typology': u'chalet'}",,False,,,False,,False,False,40.8546191,-3.4779391,Patones,,False,,13,rent,,450.0,5.0,38312683,chalet,Madrid,2,True,90.0,good,"{u'subtitle': u'Patones', u'title': u'Casa independiente en calle de San Pedro, 3'}",https://img3.idealista.com/blur/WEB_LISTING/0/id.pro.es.image.master/14/ca/04/234307153.jpg,http://www.idealista.com/38312683
24,"avenida del Monasterio de El Escorial, 73",2,es,{u'typology': u'flat'},Fuencarral,True,,1,False,True,False,False,40.5067874,-3.6961807,Madrid,Montecarmelo,False,,15,rent,"{u'hasParkingSpace': True, u'isParkingSpaceIncludedInPrice': True}",1300.0,13.0,38307737,flat,Madrid,2,True,98.0,good,"{u'subtitle': u'Montecarmelo, Madrid', u'title': u'Piso en avenida del Monasterio de El Escorial, 73'}",https://img3.idealista.com/blur/WEB_LISTING/0/id.pro.es.image.master/b5/17/2a/234223776.jpg,http://www.idealista.com/38307737
25,"calle Colombia, 53",1,es,{u'typology': u'flat'},Chamartín,True,,2,False,True,False,False,40.4572687,-3.6700972,Madrid,Bernabéu-Hispanoamérica,False,,16,rent,,1100.0,17.0,28847063,flat,Madrid,2,True,65.0,good,"{u'subtitle': u'Bernabéu-Hispanoamérica, Madrid', u'title': u'Piso en calle Colombia, 53'}",https://img3.idealista.com/blur/WEB_LISTING/0/id.pro.es.image.master/3d/30/1a/76606407.jpg,http://www.idealista.com/28847063
26,"vicente Blasco Ibañez, 15",2,es,{u'typology': u'flat'},Hortaleza,True,bi15,1,False,True,False,False,40.4914314,-3.6577223,Madrid,Sanchinarro,False,,20,rent,"{u'parkingSpacePrice': 80.0, u'hasParkingSpace': True, u'isParkingSpaceIncludedInPrice': False}",1300.0,10.0,38312621,flat,Madrid,3,True,130.0,good,"{u'subtitle': u'Sanchinarro, Madrid', u'title': u'Piso en vicente Blasco Ibañez, 15'}",https://img3.idealista.com/blur/WEB_LISTING/0/id.pro.es.image.master/a2/84/ba/234305881.jpg,http://www.idealista.com/38312621
27,calle MAGDALENA,1,es,{u'typology': u'flat'},Centro,True,BD1504,1,False,True,False,False,40.4120259,-3.7012308,Madrid,Lavapiés-Embajadores,False,,29,rent,,950.0,18.0,38312613,flat,Madrid,1,False,53.0,good,"{u'subtitle': u'Lavapiés-Embajadores, Madrid', u'title': u'Piso en calle MAGDALENA'}",https://img3.idealista.com/blur/WEB_LISTING/0/id.pro.es.image.master/88/c0/62/234305810.jpg,http://www.idealista.com/38312613
28,"avenida de la Pedriza, 13",1,es,{u'typology': u'flat'},,True,,bj,False,True,False,False,40.7282093,-3.8716999,Manzanares el Real,,False,,12,rent,"{u'hasParkingSpace': True, u'isParkingSpaceIncludedInPrice': True}",560.0,7.0,30371671,flat,Madrid,2,True,85.0,good,"{u'subtitle': u'Manzanares el Real', u'title': u'Piso en avenida de la Pedriza, 13'}",https://img3.idealista.com/blur/WEB_LISTING/0/id.pro.es.image.master/ae/5e/75/99341022.jpg,http://www.idealista.com/30371671
29,camino de la raya,2,es,{u'typology': u'flat'},Raya del Palancar - Guadamonte,False,454918,,False,True,False,False,40.4260342,-3.9762152,Villanueva de la Cañada,,False,,5,rent,"{u'hasParkingSpace': True, u'isParkingSpaceIncludedInPrice': True}",950.0,9.0,38305685,flat,Madrid,3,False,105.0,good,"{u'subtitle': u'Raya del Palancar - Guadamonte, Villanueva de la Cañada', u'title': u'Piso en camino de la raya'}",https://img3.idealista.com/blur/WEB_LISTING/0/id.pro.es.image.master/07/7d/96/234157951.jpg,http://www.idealista.com/38305685
30,"calle Hermosilla, 39",1,es,{u'typology': u'flat'},Salamanca,False,BAJO D,bj,False,True,False,False,40.4263789,-3.6833527,Madrid,Recoletos,False,,10,rent,,700.0,11.0,29831479,flat,Madrid,1,True,65.0,good,"{u'subtitle': u'Recoletos, Madrid', u'title': u'Piso en calle Hermosilla, 39'}",https://img3.idealista.com/blur/WEB_LISTING/0/id.pro.es.image.master/e5/6f/9d/91243654.jpg,http://www.idealista.com/29831479
31,"calle San Julian del Camino, 5",2,es,{u'typology': u'flat'},Fuencarral,True,,4,False,True,True,True,40.510328,-3.67098,Madrid,Las Tablas,False,,21,rent,"{u'hasParkingSpace': True, u'isParkingSpaceIncludedInPrice': True}",1100.0,11.0,27536993,flat,Madrid,2,True,102.0,good,"{u'subtitle': u'Las Tablas, Madrid', u'title': u'Piso en calle San Julian del Camino, 5'}",https://img3.idealista.com/blur/WEB_LISTING/0/id.pro.es.image.master/d4/4c/5a/57133024.jpg,http://www.idealista.com/27536993
32,"calle de silvio abad, 61",1,es,{u'typology': u'flat'},Usera,True,2801-013070-01,1,False,False,False,False,40.3810491,-3.7123791,Madrid,Zofío,False,,9,rent,,500.0,11.0,38312599,flat,Madrid,2,True,45.0,good,"{u'subtitle': u'Zofío, Madrid', u'title': u'Piso en calle de silvio abad, 61'}",https://img3.idealista.com/blur/WEB_LISTING/0/id.pro.es.image.master/19/ed/aa/234305353.jpg,http://www.idealista.com/38312599
33,"calle san timoteo, 1",1,es,{u'typology': u'flat'},Latina,True,2808-013069-01,1,False,True,False,False,40.4049397,-3.7350586,Madrid,Puerta del Ángel,False,,6,rent,,500.0,10.0,38312598,flat,Madrid,1,True,50.0,good,"{u'subtitle': u'Puerta del Ángel, Madrid', u'title': u'Piso en calle san timoteo, 1'}",https://img3.idealista.com/blur/WEB_LISTING/0/id.pro.es.image.master/f9/31/44/234305347.jpg,http://www.idealista.com/38312598
34,"calle de miguel peña, 6",1,es,{u'typology': u'flat'},El Barral Ferial,True,2831-013068-01,1,False,True,False,False,40.4437,-3.53273,Coslada,,False,,18,rent,,550.0,6.0,38312597,flat,Madrid,3,True,85.0,good,"{u'subtitle': u'El Barral Ferial, Coslada', u'title': u'Piso en calle de miguel peña, 6'}",https://img3.idealista.com/blur/WEB_LISTING/0/id.pro.es.image.master/77/0b/e0/234305329.jpg,http://www.idealista.com/38312597
35,"calle mario vargas llosa, 22",2,es,{u'typology': u'flat'},Fuentebella-San Felix-El Leguario,True,2810-013067-01,,False,False,False,False,40.2241531,-3.7729933,Parla,,False,,29,rent,,1250.0,6.0,38312595,flat,Madrid,4,True,200.0,good,"{u'subtitle': u'Fuentebella-San Felix-El Leguario, Parla', u'title': u'Piso en calle mario vargas llosa, 22'}",https://img3.idealista.com/blur/WEB_LISTING/0/id.pro.es.image.master/e2/78/99/234305279.jpg,http://www.idealista.com/38312595
36,"avenida de la gran vía de hortaleza, 88",1,es,{u'typology': u'flat'},Hortaleza,True,2805-013066-01,4,False,True,False,False,40.4688975,-3.6439943,Madrid,Canillas,False,,19,rent,,890.0,13.0,38312594,flat,Madrid,2,True,70.0,good,"{u'subtitle': u'Canillas, Madrid', u'title': u'Piso en avenida de la gran vía de hortaleza, 88'}",https://img3.idealista.com/blur/WEB_LISTING/0/id.pro.es.image.master/10/6f/16/234305260.jpg,http://www.idealista.com/38312594
37,"calle sisebuto, 7",1,es,{u'typology': u'flat'},Latina,True,2808-013065-01,2,False,False,False,False,40.4123739,-3.7340826,Madrid,Puerta del Ángel,False,,32,rent,,950.0,15.0,38312593,flat,Madrid,3,True,65.0,good,"{u'subtitle': u'Puerta del Ángel, Madrid', u'title': u'Piso en calle sisebuto, 7'}",https://img3.idealista.com/blur/WEB_LISTING/0/id.pro.es.image.master/f6/98/cf/234305216.jpg,http://www.idealista.com/38312593
38,"calle del aviador zorita, 25",2,es,{u'typology': u'flat'},Tetuán,True,2802-009716-02,2,False,True,False,False,40.44949,-3.69851,Madrid,Cuatro Caminos,False,,20,rent,,1500.0,14.0,38312591,flat,Madrid,4,True,110.0,good,"{u'subtitle': u'Cuatro Caminos, Madrid', u'title': u'Piso en calle del aviador zorita, 25'}",https://img3.idealista.com/blur/WEB_LISTING/0/id.pro.es.image.master/c4/88/91/234305166.jpg,http://www.idealista.com/38312591
39,"calle general ricardos, 129",1,es,{u'typology': u'flat'},Carabanchel,True,2801-005479-03,3,False,True,False,False,40.3817001,-3.7338502,Madrid,Puerta Bonita,False,,16,rent,,595.0,7.0,38312590,flat,Madrid,2,True,83.0,good,"{u'subtitle': u'Puerta Bonita, Madrid', u'title': u'Piso en calle general ricardos, 129'}",https://img3.idealista.com/blur/WEB_LISTING/0/id.pro.es.image.master/e3/11/1c/234305135.jpg,http://www.idealista.com/38312590
40,"calle del corregidor señor de la elipa, 8",1,es,{u'typology': u'flat'},Moratalaz,True,2803-003027-03,4,False,True,False,False,40.4112045,-3.6503948,Madrid,Marroquina,False,,11,rent,,500.0,8.0,38312589,flat,Madrid,2,True,60.0,good,"{u'subtitle': u'Marroquina, Madrid', u'title': u'Piso en calle del corregidor señor de la elipa, 8'}",https://img3.idealista.com/blur/WEB_LISTING/0/id.pro.es.image.master/d0/35/d1/234305101.jpg,http://www.idealista.com/38312589
41,"calle carolina coronado, 10",1,es,{u'typology': u'flat'},Centro,True,2810-002660-04,2,False,True,False,False,40.2372278,-3.7699057,Parla,,False,,16,rent,"{u'hasParkingSpace': True, u'isParkingSpaceIncludedInPrice': True}",495.0,8.0,38312576,flat,Madrid,2,True,60.0,good,"{u'subtitle': u'Centro, Parla', u'title': u'Piso en calle carolina coronado, 10'}",https://img3.idealista.com/blur/WEB_LISTING/0/id.pro.es.image.master/09/a7/f3/234305066.jpg,http://www.idealista.com/38312576
42,salamanca - Castellana,1,es,{u'typology': u'flat'},Salamanca,False,1117,1,False,True,False,False,40.4334481,-3.685438,Madrid,Castellana,False,,7,rent,,1000.0,18.0,38312571,flat,Madrid,1,False,56.0,good,"{u'subtitle': u'Castellana, Madrid', u'title': u'Piso en salamanca - Castellana'}",https://img3.idealista.com/blur/WEB_LISTING/0/id.pro.es.image.master/32/37/ed/234305001.jpg,http://www.idealista.com/38312571
43,barrio Casco Histórico de Barajas,2,es,{u'typology': u'flat'},Barajas,True,pa-08-12,1,False,True,False,False,40.4727066,-3.5774898,Madrid,Casco Histórico de Barajas,False,,23,rent,"{u'hasParkingSpace': True, u'isParkingSpaceIncludedInPrice': True}",900.0,10.0,1333312,flat,Madrid,2,False,90.0,good,"{u'subtitle': u'Casco Histórico de Barajas, Madrid', u'title': u'Piso'}",https://img3.idealista.com/blur/WEB_LISTING/0/id.pro.es.image.master/8a/f5/35/9422982.jpg,http://www.idealista.com/1333312
44,o´Donnell,4,es,{u'typology': u'flat'},Retiro,True,,5,False,True,False,False,40.421226,-3.6714589,Madrid,Ibiza,False,,40,rent,,2800.0,14.0,38312417,flat,Madrid,4,False,204.0,good,"{u'subtitle': u'Ibiza, Madrid', u'title': u'Piso en o´Donnell'}",https://img3.idealista.com/blur/WEB_LISTING/0/id.pro.es.image.master/09/fa/60/234301529.jpg,http://www.idealista.com/38312417
45,"calle Doctor Piga, 11",1,es,{u'typology': u'flat'},Centro,True,,bj,False,True,False,False,40.4084596,-3.6981335,Madrid,Lavapiés-Embajadores,False,,19,rent,,1800.0,15.0,35795270,flat,Madrid,2,True,120.0,good,"{u'subtitle': u'Lavapiés-Embajadores, Madrid', u'title': u'Piso en calle Doctor Piga, 11'}",https://img3.idealista.com/blur/WEB_LISTING/0/id.pro.es.image.master/2f/02/8b/186870698.jpg,http://www.idealista.com/35795270
46,calle Santa Valentina,1,es,{u'typology': u'flat'},Tetuán,True,1021-HE-Sant.Va,2,False,True,False,False,40.4662194,-3.6966497,Madrid,Valdeacederas,False,,21,rent,"{u'hasParkingSpace': True, u'isParkingSpaceIncludedInPrice': True}",700.0,13.0,38312555,flat,Madrid,1,False,55.0,good,"{u'subtitle': u'Valdeacederas, Madrid', u'title': u'Piso en calle Santa Valentina'}",https://img3.idealista.com/blur/WEB_LISTING/0/id.pro.es.image.master/1f/70/33/234304699.jpg,http://www.idealista.com/38312555
47,barrio Chueca-Justicia,3,es,{u'typology': u'flat'},Centro,True,MA2103I,1,False,True,False,False,40.4292087,-3.6971518,Madrid,Chueca-Justicia,False,,48,rent,,3100.0,12.0,38312526,flat,Madrid,3,False,253.0,good,"{u'subtitle': u'Chueca-Justicia, Madrid', u'title': u'Piso'}",https://img3.idealista.com/blur/WEB_LISTING/0/id.pro.es.image.master/4a/e5/cf/234303885.jpg,http://www.idealista.com/38312526
48,barrio Somosaguas,4,es,"{u'subTypology': u'independantHouse', u'typology': u'chalet'}",Somosaguas,False,PA3708I,,False,,False,False,40.4298626,-3.7951234,Pozuelo de Alarcón,Somosaguas,False,,59,rent,"{u'hasParkingSpace': True, u'isParkingSpaceIncludedInPrice': True}",7000.0,7.0,31456708,chalet,Madrid,6,False,1000.0,good,"{u'subtitle': u'Somosaguas, Pozuelo de Alarcón', u'title': u'Casa independiente'}",https://img3.idealista.com/blur/WEB_LISTING/0/id.pro.es.image.master/d6/ae/30/234303009.jpg,http://www.idealista.com/31456708
49,Zona Industrial,3,es,{u'typology': u'flat'},Zona Industrial,True,A5369I,bj,False,False,False,False,40.53725,-3.65094,Alcobendas,,False,,29,rent,"{u'hasParkingSpace': True, u'isParkingSpaceIncludedInPrice': True}",2950.0,16.0,27661206,flat,Madrid,2,False,185.0,good,"{u'subtitle': u'Zona Industrial, Alcobendas', u'title': u'Piso'}",https://img3.idealista.com/blur/WEB_LISTING/0/id.pro.es.image.master/c2/b5/00/234302579.jpg,http://www.idealista.com/27661206
50,puenteareas,2,es,{u'typology': u'flat'},Chamartín,True,Puenteareas,4,False,True,False,False,40.4423495,-3.6696942,Madrid,Prosperidad,False,,13,rent,,1350.0,11.0,38312464,flat,Madrid,3,False,120.0,good,"{u'subtitle': u'Prosperidad, Madrid', u'title': u'Piso en puenteareas'}",https://img3.idealista.com/blur/WEB_LISTING/0/id.pro.es.image.master/76/8f/b9/234302389.jpg,http://www.idealista.com/38312464
51,barrio Prosperidad,2,es,"{u'subTypology': u'penthouse', u'typology': u'flat'}",Chamartín,True,1347,4,False,True,False,False,40.447665,-3.6651478,Madrid,Prosperidad,False,,32,rent,"{u'hasParkingSpace': True, u'isParkingSpaceIncludedInPrice': True}",1350.0,11.0,38312429,penthouse,Madrid,2,False,120.0,good,"{u'subtitle': u'Prosperidad, Madrid', u'title': u'Ático'}",https://img3.idealista.com/blur/WEB_LISTING/0/id.pro.es.image.master/60/ce/24/234301536.jpg,http://www.idealista.com/38312429
52,"calle Bolívar, 15",2,es,{u'typology': u'flat'},Arganzuela,True,,4,False,True,True,False,40.3928401,-3.6897678,Madrid,Delicias,False,,11,rent,"{u'hasParkingSpace': True, u'isParkingSpaceIncludedInPrice': True}",1400.0,14.0,1998496,flat,Madrid,3,True,100.0,good,"{u'subtitle': u'Delicias, Madrid', u'title': u'Piso en calle Bolívar, 15'}",https://img3.idealista.com/blur/WEB_LISTING/0/id.pro.es.image.master/c1/3a/71/11058393.jpg,http://www.idealista.com/1998496
53,"calle de jesús y maría, 1",1,es,"{u'subTypology': u'casaDePueblo', u'typology': u'countryHouse'}",,False,,,False,,False,False,40.3794308,-4.2094401,Chapineria,,False,,9,rent,,330.0,4.0,30821351,countryHouse,Madrid,3,True,75.0,good,"{u'subtitle': u'Chapineria', u'title': u'Casa de pueblo en calle de jesús y maría, 1'}",https://img3.idealista.com/blur/WEB_LISTING/0/id.pro.es.image.master/a2/63/f7/106538371.jpg,http://www.idealista.com/30821351
54,virgen de loreto,1,es,"{u'subTypology': u'studio', u'typology': u'flat'}",Noreste,True,0-loft,5,False,True,False,False,40.4594712,-3.475751,Torrejón de Ardoz,,False,,9,rent,,600.0,12.0,38312345,studio,Madrid,0,False,50.0,good,"{u'subtitle': u'Noreste, Torrejón de Ardoz', u'title': u'Estudio en virgen de loreto'}",https://img3.idealista.com/blur/WEB_LISTING/0/id.pro.es.image.master/fa/47/fd/234300113.jpg,http://www.idealista.com/38312345
55,claudio coello,3,es,{u'typology': u'flat'},Salamanca,True,eg00001,6,False,True,False,False,40.4209315,-3.686973,Madrid,Recoletos,False,,18,rent,"{u'hasParkingSpace': True, u'isParkingSpaceIncludedInPrice': True}",2750.0,18.0,38312338,flat,Madrid,2,False,150.0,good,"{u'subtitle': u'Recoletos, Madrid', u'title': u'Piso en claudio coello'}",https://img3.idealista.com/blur/WEB_LISTING/0/id.pro.es.image.master/e4/7f/4c/234299721.jpg,http://www.idealista.com/38312338
56,calle de Santa Ana,1,es,{u'typology': u'flat'},Centro,True,Est068,3,False,True,False,False,40.4110979,-3.7077023,Madrid,Lavapiés-Embajadores,False,,4,rent,,1200.0,18.0,38312334,flat,Madrid,2,False,68.0,good,"{u'subtitle': u'Lavapiés-Embajadores, Madrid', u'title': u'Piso en calle de Santa Ana'}",https://img3.idealista.com/blur/WEB_LISTING/0/id.pro.es.image.master/02/fc/85/234318265.jpg,http://www.idealista.com/38312334
57,barrio Huertas-Cortes,1,es,{u'typology': u'flat'},Centro,True,694,3,False,True,False,False,40.4164313,-3.6985571,Madrid,Huertas-Cortes,False,,10,rent,,850.0,15.0,38312331,flat,Madrid,1,False,55.0,good,"{u'subtitle': u'Huertas-Cortes, Madrid', u'title': u'Piso'}",https://img3.idealista.com/blur/WEB_LISTING/0/id.pro.es.image.master/bd/29/49/234299832.jpg,http://www.idealista.com/38312331
58,barrio Recoletos,4,es,{u'typology': u'flat'},Salamanca,True,264,4,False,True,False,False,40.4232953,-3.683404,Madrid,Recoletos,False,,21,rent,"{u'hasParkingSpace': True, u'isParkingSpaceIncludedInPrice': True}",5400.0,18.0,38312267,flat,Madrid,4,False,305.0,good,"{u'subtitle': u'Recoletos, Madrid', u'title': u'Piso'}",https://img3.idealista.com/blur/WEB_LISTING/0/id.pro.es.image.master/8f/97/94/234299031.jpg,http://www.idealista.com/38312267
59,calle Minas,1,es,{u'typology': u'flat'},Centro,True,6810111,3,False,True,False,False,40.4267797,-3.7038291,Madrid,Malasaña-Universidad,False,,10,rent,,1200.0,18.0,38312307,flat,Madrid,2,False,66.0,good,"{u'subtitle': u'Malasaña-Universidad, Madrid', u'title': u'Piso en calle Minas'}",https://img3.idealista.com/blur/WEB_LISTING/0/id.pro.es.image.master/f2/5e/80/234299350.jpg,http://www.idealista.com/38312307
60,lopez de hoyos,2,es,{u'typology': u'flat'},Chamartín,True,CM1283-031017,2,False,True,False,False,40.4455369,-3.6730436,Madrid,Prosperidad,False,,7,rent,,1450.0,15.0,38312319,flat,Madrid,3,False,95.0,good,"{u'subtitle': u'Prosperidad, Madrid', u'title': u'Piso en lopez de hoyos'}",https://img3.idealista.com/blur/WEB_LISTING/0/id.pro.es.image.master/d6/2d/a3/234299356.jpg,http://www.idealista.com/38312319
61,calle del poeta esteban villegas,2,es,{u'typology': u'flat'},Retiro,False,RP179201734851,9,False,True,False,False,40.4087375,-3.6792897,Madrid,Jerónimos,False,,19,rent,,1800.0,12.0,38312323,flat,Madrid,3,False,154.0,good,"{u'subtitle': u'Jerónimos, Madrid', u'title': u'Piso en calle del poeta esteban villegas'}",https://img3.idealista.com/blur/WEB_LISTING/0/id.pro.es.image.master/a2/d0/24/234267310.jpg,http://www.idealista.com/38312323
62,"calle de Orense, 69",1,es,{u'typology': u'flat'},Tetuán,True,,14,False,True,False,False,40.4585917,-3.6945422,Madrid,Cuzco-Castillejos,False,,24,rent,,1200.0,15.0,38312268,flat,Madrid,1,True,80.0,good,"{u'subtitle': u'Cuzco-Castillejos, Madrid', u'title': u'Piso en calle de Orense, 69'}",https://img3.idealista.com/blur/WEB_LISTING/0/id.pro.es.image.master/55/bc/16/234298427.jpg,http://www.idealista.com/38312268
63,calle julio caro baroja,2,es,{u'typology': u'flat'},Viñas Viejas,False,455127,,False,False,False,False,40.4250442,-3.8961861,Boadilla del Monte,,False,,10,rent,"{u'hasParkingSpace': True, u'isParkingSpaceIncludedInPrice': True}",1400.0,6.0,38312286,flat,Madrid,4,False,250.0,good,"{u'subtitle': u'Viñas Viejas, Boadilla del Monte', u'title': u'Piso en calle julio caro baroja'}",https://img3.idealista.com/blur/WEB_LISTING/0/id.pro.es.image.master/63/f1/02/234298727.jpg,http://www.idealista.com/38312286
64,calle constancia,1,es,"{u'subTypology': u'studio', u'typology': u'flat'}",Chamartín,True,20179,2,False,True,False,False,40.444544,-3.6732264,Madrid,Prosperidad,False,,7,rent,,700.0,23.0,38312280,studio,Madrid,0,False,31.0,good,"{u'subtitle': u'Prosperidad, Madrid', u'title': u'Estudio en calle constancia'}",https://img3.idealista.com/blur/WEB_LISTING/0/id.pro.es.image.master/e3/62/10/234298597.jpg,http://www.idealista.com/38312280
65,avenida monte gancedo,4,es,{u'typology': u'chalet'},Urbanizaciones,False,MVF-A2042,,False,,False,False,40.417029,-3.8388427,Pozuelo de Alarcón,La Cabaña,False,,40,rent,"{u'hasParkingSpace': True, u'isParkingSpaceIncludedInPrice': True}",2400.0,8.0,38312264,chalet,Madrid,5,False,300.0,good,"{u'subtitle': u'La Cabaña, Pozuelo de Alarcón', u'title': u'Chalet en avenida monte gancedo'}",https://img3.idealista.com/blur/WEB_LISTING/0/id.pro.es.image.master/a4/d3/30/234298520.jpg,http://www.idealista.com/38312264
66,calle de san bernardo,1,es,{u'typology': u'flat'},Centro,False,A-1734,1,False,True,False,False,40.4300234,-3.7058185,Madrid,Malasaña-Universidad,False,,25,rent,,1100.0,17.0,38312258,flat,Madrid,1,False,65.0,good,"{u'subtitle': u'Malasaña-Universidad, Madrid', u'title': u'Piso en calle de san bernardo'}",https://img3.idealista.com/blur/WEB_LISTING/0/id.pro.es.image.master/80/21/c4/234298374.jpg,http://www.idealista.com/38312258
67,avenida del Monasterio de Silos,2,es,{u'typology': u'flat'},Fuencarral,True,BKH-244,3,False,True,False,False,40.5060635,-3.6927027,Madrid,Montecarmelo,False,,26,rent,"{u'hasParkingSpace': True, u'isParkingSpaceIncludedInPrice': True}",1700.0,14.0,38312236,flat,Madrid,3,False,119.0,good,"{u'subtitle': u'Montecarmelo, Madrid', u'title': u'Piso en avenida del Monasterio de Silos'}",https://img3.idealista.com/blur/WEB_LISTING/0/id.pro.es.image.master/e8/83/d8/234298639.jpg,http://www.idealista.com/38312236
68,calle de Princesa,1,es,{u'typology': u'flat'},Moncloa,False,,8,False,True,False,False,40.4233559,-3.7147583,Madrid,Argüelles,False,,11,rent,,850.0,12.0,38312127,flat,Madrid,1,False,73.0,good,"{u'subtitle': u'Argüelles, Madrid', u'title': u'Piso en calle de Princesa'}",https://img3.idealista.com/blur/WEB_LISTING/0/id.pro.es.image.master/3a/aa/c1/234297689.jpg,http://www.idealista.com/38312127
69,serrano,1,es,"{u'subTypology': u'studio', u'typology': u'flat'}",Salamanca,True,eg0000,6,False,True,False,False,40.4238397,-3.6863558,Madrid,Recoletos,False,,9,rent,,1750.0,27.0,38312185,studio,Madrid,0,False,65.0,good,"{u'subtitle': u'Recoletos, Madrid', u'title': u'Estudio en serrano'}",https://img3.idealista.com/blur/WEB_LISTING/0/id.pro.es.image.master/37/78/1f/234297681.jpg,http://www.idealista.com/38312185
70,calle Hospital de Órbigo,1,es,{u'typology': u'flat'},Fuencarral,True,BKH-245,2,False,True,False,False,40.51192,-3.67028,Madrid,Las Tablas,False,,1,rent,"{u'hasParkingSpace': True, u'isParkingSpaceIncludedInPrice': True}",850.0,19.0,38312183,flat,Madrid,1,False,45.0,good,"{u'subtitle': u'Las Tablas, Madrid', u'title': u'Piso en calle Hospital de Órbigo'}",https://img3.idealista.com/blur/WEB_LISTING/0/id.pro.es.image.master/a8/e5/9a/234297606.jpg,http://www.idealista.com/38312183
71,Centro,2,es,{u'typology': u'flat'},Centro,False,P-14,,False,True,False,False,40.2791532,-3.7968839,Fuenlabrada,,False,,10,rent,,650.0,7.0,38312207,flat,Madrid,2,False,90.0,good,"{u'subtitle': u'Centro, Fuenlabrada', u'title': u'Piso'}",https://img3.idealista.com/blur/WEB_LISTING/0/id.pro.es.image.master/cb/3a/16/234297539.jpg,http://www.idealista.com/38312207
72,"calle Cadete Julio Llompart, 18",1,es,{u'typology': u'flat'},Carabanchel,True,,en,False,False,False,False,40.3965964,-3.7342532,Madrid,San Isidro,False,,7,rent,,475.0,10.0,38245942,flat,Madrid,1,True,50.0,good,"{u'subtitle': u'San Isidro, Madrid', u'title': u'Piso en calle Cadete Julio Llompart, 18'}",https://img3.idealista.com/blur/WEB_LISTING/0/id.pro.es.image.master/6f/d9/97/233150092.jpg,http://www.idealista.com/38245942
73,"calle de ana de austria, 53",2,es,{u'typology': u'flat'},Hortaleza,False,P-490,2,False,False,False,False,40.4971087,-3.6548231,Madrid,Sanchinarro,False,,22,rent,,1100.0,9.0,38312194,flat,Madrid,2,True,118.0,,"{u'subtitle': u'Sanchinarro, Madrid', u'title': u'Piso en calle de ana de austria, 53'}",https://img3.idealista.com/blur/WEB_LISTING/0/id.pro.es.image.master/80/62/24/234297311.jpg,http://www.idealista.com/38312194
74,"calle leopoldo alas clarín, 2",2,es,{u'typology': u'flat'},Fuencarral,False,P-489,6,False,True,False,False,40.4800192,-3.7347572,Madrid,Peñagrande,False,,21,rent,,1200.0,12.0,38312192,flat,Madrid,3,True,100.0,good,"{u'subtitle': u'Peñagrande, Madrid', u'title': u'Piso en calle leopoldo alas clarín, 2'}",https://img3.idealista.com/blur/WEB_LISTING/0/id.pro.es.image.master/49/7a/91/234297282.jpg,http://www.idealista.com/38312192
75,calle de Ana de Austria,2,es,{u'typology': u'flat'},Hortaleza,True,BKH-241,5,False,True,False,False,40.4966931,-3.6532837,Madrid,Sanchinarro,False,,10,rent,"{u'hasParkingSpace': True, u'isParkingSpaceIncludedInPrice': True}",1150.0,11.0,38312175,flat,Madrid,2,False,104.0,good,"{u'subtitle': u'Sanchinarro, Madrid', u'title': u'Piso en calle de Ana de Austria'}",https://img3.idealista.com/blur/WEB_LISTING/0/id.pro.es.image.master/43/2c/f9/234297183.jpg,http://www.idealista.com/38312175
76,calle de la Costa Brava,3,es,{u'typology': u'flat'},Fuencarral,True,BKH-238,3,False,True,False,False,40.4953364,-3.7038762,Madrid,Mirasierra,False,,35,rent,"{u'hasParkingSpace': True, u'isParkingSpaceIncludedInPrice': True}",2300.0,13.0,38312159,flat,Madrid,4,False,181.0,good,"{u'subtitle': u'Mirasierra, Madrid', u'title': u'Piso en calle de la Costa Brava'}",https://img3.idealista.com/blur/WEB_LISTING/0/id.pro.es.image.master/99/52/fc/234296891.jpg,http://www.idealista.com/38312159
77,calle de Castiello de Jaca,2,es,"{u'subTypology': u'penthouse', u'typology': u'flat'}",Fuencarral,True,BKH-243,7,False,True,False,False,40.5099637,-3.6795536,Madrid,Las Tablas,False,,24,rent,"{u'hasParkingSpace': True, u'isParkingSpaceIncludedInPrice': True}",1350.0,15.0,38312080,penthouse,Madrid,2,False,90.0,good,"{u'subtitle': u'Las Tablas, Madrid', u'title': u'Ático en calle de Castiello de Jaca'}",https://img3.idealista.com/blur/WEB_LISTING/0/id.pro.es.image.master/fe/3d/f7/234295276.jpg,http://www.idealista.com/38312080
78,calle de garcía de paredes,2,es,"{u'subTypology': u'duplex', u'typology': u'flat'}",Chamberí,True,JV-GPAREDES1750,2,False,True,False,True,40.4358227,-3.6998476,Madrid,Trafalgar,False,,40,rent,"{u'parkingSpacePrice': 150.0, u'hasParkingSpace': True, u'isParkingSpaceIncludedInPrice': False}",1750.0,13.0,30921765,duplex,Madrid,3,False,140.0,good,"{u'subtitle': u'Trafalgar, Madrid', u'title': u'Dúplex en calle de garcía de paredes'}",https://img3.idealista.com/blur/WEB_LISTING/0/id.pro.es.image.master/63/98/55/108212890.jpg,http://www.idealista.com/30921765
79,"calle Piamonte, 4",1,es,{u'typology': u'flat'},Centro,False,,1,False,True,True,False,40.42296,-3.6960589,Madrid,Chueca-Justicia,False,,18,rent,,1200.0,16.0,1638513,flat,Madrid,1,True,75.0,good,"{u'subtitle': u'Chueca-Justicia, Madrid', u'title': u'Piso en calle Piamonte, 4'}",https://img3.idealista.com/blur/WEB_LISTING/0/id.pro.es.image.master/1a/b1/be/234291547.jpg,http://www.idealista.com/1638513
80,leiza,2,es,"{u'subTypology': u'terracedHouse', u'typology': u'chalet'}",Usera,False,1728_ORCVICL,,False,,False,False,40.3690357,-3.7147508,Madrid,Orcasitas,False,,34,rent,,775.0,10.0,38311700,chalet,Madrid,3,False,81.0,good,"{u'subtitle': u'Orcasitas, Madrid', u'title': u'Chalet adosado en leiza'}",https://img3.idealista.com/blur/WEB_LISTING/0/id.pro.es.image.master/f9/53/73/234294011.jpg,http://www.idealista.com/38311700
81,"calle Cordel de Valladolid, 16",1,es,{u'typology': u'flat'},Los Negrales,True,,2,False,True,False,False,40.6355191,-4.0154541,Collado Villalba,,False,,10,rent,"{u'parkingSpacePrice': 40.0, u'hasParkingSpace': True, u'isParkingSpaceIncludedInPrice': False}",550.0,11.0,29278264,flat,Madrid,1,True,50.0,good,"{u'subtitle': u'Los Negrales, Collado Villalba', u'title': u'Piso en calle Cordel de Valladolid, 16'}",https://img3.idealista.com/blur/WEB_LISTING/0/id.pro.es.image.master/98/19/87/83710725.jpg,http://www.idealista.com/29278264
82,barrio Arroyo del Fresno,5,es,"{u'subTypology': u'terracedHouse', u'typology': u'chalet'}",Fuencarral,False,01158,,False,,False,True,40.4902907,-3.7243682,Madrid,Arroyo del Fresno,False,,18,rent,"{u'hasParkingSpace': True, u'isParkingSpaceIncludedInPrice': True}",2500.0,8.0,38311985,chalet,Madrid,4,False,310.0,good,"{u'subtitle': u'Arroyo del Fresno, Madrid', u'title': u'Chalet adosado'}",https://img3.idealista.com/blur/WEB_LISTING/0/id.pro.es.image.master/4d/48/18/234293782.jpg,http://www.idealista.com/38311985
83,calle de Gonzalo Sandino,1,es,{u'typology': u'flat'},Tetuán,True,BKH-249,2,False,True,False,False,40.4628223,-3.7008761,Madrid,Valdeacederas,False,,10,rent,"{u'hasParkingSpace': True, u'isParkingSpaceIncludedInPrice': True}",750.0,14.0,38312060,flat,Madrid,1,False,55.0,good,"{u'subtitle': u'Valdeacederas, Madrid', u'title': u'Piso en calle de Gonzalo Sandino'}",https://img3.idealista.com/blur/WEB_LISTING/0/id.pro.es.image.master/30/55/91/234294912.jpg,http://www.idealista.com/38312060
84,barrio El Plantío,6,es,"{u'subTypology': u'independantHouse', u'typology': u'chalet'}",Moncloa,False,M03771ZA,,False,,False,False,40.4681086,-3.8049653,Madrid,El Plantío,False,,40,rent,"{u'hasParkingSpace': True, u'isParkingSpaceIncludedInPrice': True}",9500.0,8.0,38312026,chalet,Madrid,6,False,1200.0,good,"{u'subtitle': u'El Plantío, Madrid', u'title': u'Casa independiente'}",https://img3.idealista.com/blur/WEB_LISTING/0/id.pro.es.image.master/1a/28/11/234294581.jpg,http://www.idealista.com/38312026
85,ortega y Gasset s/n,1,es,{u'typology': u'flat'},El Pilar - Bripac,True,CIUDAD X,2,False,True,False,False,40.5101127,-3.3548813,Alcalá de Henares,,False,,14,rent,"{u'hasParkingSpace': True, u'isParkingSpaceIncludedInPrice': True}",800.0,10.0,38311991,flat,Madrid,2,True,80.0,good,"{u'subtitle': u'El Pilar - Bripac, Alcalá de Henares', u'title': u'Piso en ortega y Gasset s/n'}",https://img3.idealista.com/blur/WEB_LISTING/0/id.pro.es.image.master/3b/8b/35/234293989.jpg,http://www.idealista.com/38311991
86,barrio Chueca-Justicia,1,es,{u'typology': u'flat'},Centro,True,Chueca 00105,3,False,True,False,False,40.4196722,-3.6977793,Madrid,Chueca-Justicia,False,,42,rent,"{u'hasParkingSpace': True, u'isParkingSpaceIncludedInPrice': True}",2700.0,36.0,38312031,flat,Madrid,2,False,75.0,good,"{u'subtitle': u'Chueca-Justicia, Madrid', u'title': u'Piso'}",https://img3.idealista.com/blur/WEB_LISTING/0/id.pro.es.image.master/82/a4/81/234307867.jpg,http://www.idealista.com/38312031
87,"calle de padilla, 60",2,es,{u'typology': u'flat'},Salamanca,False,320I06DAP1D,1,False,True,False,False,40.4311821,-3.6769347,Madrid,Lista,False,,14,rent,,1750.0,25.0,38312021,flat,Madrid,2,True,70.0,good,"{u'subtitle': u'Lista, Madrid', u'title': u'Piso en calle de padilla, 60'}",https://img3.idealista.com/blur/WEB_LISTING/0/id.pro.es.image.master/5d/2d/e9/234294318.jpg,http://www.idealista.com/38312021
88,calle marqués de la ensenada,1,es,"{u'subTypology': u'studio', u'typology': u'flat'}",Centro,False,320I3EM5201,10,False,True,False,False,40.4248675,-3.6907496,Madrid,Chueca-Justicia,False,,35,rent,,1300.0,43.0,34265515,studio,Madrid,0,False,30.0,good,"{u'subtitle': u'Chueca-Justicia, Madrid', u'title': u'Estudio en calle marqués de la ensenada'}",https://img3.idealista.com/blur/WEB_LISTING/0/id.pro.es.image.master/f6/59/6f/223008282.jpg,http://www.idealista.com/34265515
89,"calle de padilla, 60",2,es,{u'typology': u'flat'},Salamanca,False,330I06DAP1D,1,False,True,False,False,40.4311821,-3.6769347,Madrid,Lista,False,,14,rent,,1600.0,23.0,33492830,flat,Madrid,2,True,70.0,good,"{u'subtitle': u'Lista, Madrid', u'title': u'Piso en calle de padilla, 60'}",https://img3.idealista.com/blur/WEB_LISTING/0/id.pro.es.image.master/44/dd/d7/147833047.jpg,http://www.idealista.com/33492830
90,barrio Sanchinarro,2,es,{u'typology': u'flat'},Hortaleza,True,,1,False,True,False,False,40.4891694,-3.658662,Madrid,Sanchinarro,False,,10,rent,"{u'hasParkingSpace': True, u'isParkingSpaceIncludedInPrice': True}",1350.0,12.0,38311919,flat,Madrid,3,False,116.0,good,"{u'subtitle': u'Sanchinarro, Madrid', u'title': u'Piso'}",https://img3.idealista.com/blur/WEB_LISTING/0/id.pro.es.image.master/b3/72/e1/234293504.jpg,http://www.idealista.com/38311919
91,barrio Chueca-Justicia,1,es,{u'typology': u'flat'},Centro,False,01472,2,False,True,False,True,40.4213121,-3.6996804,Madrid,Chueca-Justicia,False,,14,rent,,1900.0,21.0,38311859,flat,Madrid,2,False,90.0,good,"{u'subtitle': u'Chueca-Justicia, Madrid', u'title': u'Piso'}",https://img3.idealista.com/blur/WEB_LISTING/0/id.pro.es.image.master/a7/2b/10/234291731.jpg,http://www.idealista.com/38311859
92,calle de Ulises,1,es,{u'typology': u'flat'},Hortaleza,True,"ULISES, 96",2,False,True,False,False,40.4601468,-3.6483468,Madrid,Canillas,False,,16,rent,,1200.0,15.0,38311947,flat,Madrid,2,False,80.0,good,"{u'subtitle': u'Canillas, Madrid', u'title': u'Piso en calle de Ulises'}",https://img3.idealista.com/blur/WEB_LISTING/0/id.pro.es.image.master/c5/41/6b/234292927.jpg,http://www.idealista.com/38311947
93,calle Isla de Zanzibar,1,es,{u'typology': u'flat'},Fuencarral,True,LP_007,1,False,True,False,False,40.4806209,-3.7217694,Madrid,Peñagrande,False,,9,rent,"{u'parkingSpacePrice': 50.0, u'hasParkingSpace': True, u'isParkingSpaceIncludedInPrice': False}",850.0,17.0,28541513,flat,Madrid,2,False,50.0,good,"{u'subtitle': u'Peñagrande, Madrid', u'title': u'Piso en calle Isla de Zanzibar'}",https://img3.idealista.com/blur/WEB_LISTING/0/id.pro.es.image.master/ce/b0/ee/71578545.jpg,http://www.idealista.com/28541513
94,alcala,1,es,{u'typology': u'flat'},Salamanca,True,CM1282-031017,3,False,True,False,False,40.4289375,-3.666643,Madrid,Guindalera,False,,3,rent,,1100.0,13.0,38311939,flat,Madrid,2,False,85.0,good,"{u'subtitle': u'Guindalera, Madrid', u'title': u'Piso en alcala'}",https://img3.idealista.com/blur/WEB_LISTING/0/id.pro.es.image.master/77/f5/89/234292834.jpg,http://www.idealista.com/38311939
95,"calle General Varela, 35",1,es,{u'typology': u'flat'},Tetuán,True,,bj,False,True,False,False,40.4583651,-3.695156,Madrid,Cuzco-Castillejos,False,,15,rent,"{u'parkingSpacePrice': 70.0, u'hasParkingSpace': True, u'isParkingSpaceIncludedInPrice': False}",899.0,15.0,25750754,flat,Madrid,1,True,62.0,good,"{u'subtitle': u'Cuzco-Castillejos, Madrid', u'title': u'Piso en calle General Varela, 35'}",https://img3.idealista.com/blur/WEB_LISTING/0/id.pro.es.image.master/b2/fa/b5/33990375.jpg,http://www.idealista.com/25750754
96,"calle Monasterio de Caaveiro, 1",1,es,{u'typology': u'flat'},Fuencarral,True,,1,False,True,False,False,40.5053021,-3.6971623,Madrid,Montecarmelo,False,,5,rent,"{u'hasParkingSpace': True, u'isParkingSpaceIncludedInPrice': True}",850.0,15.0,27715623,flat,Madrid,2,True,56.0,good,"{u'subtitle': u'Montecarmelo, Madrid', u'title': u'Piso en calle Monasterio de Caaveiro, 1'}",https://img3.idealista.com/blur/WEB_LISTING/0/id.pro.es.image.master/db/ad/bc/59461507.jpg,http://www.idealista.com/27715623
97,calle de Miramadrid,1,es,{u'typology': u'flat'},Usera,True,AL-01551,3,False,False,False,False,40.3811821,-3.7087857,Madrid,Pradolongo,False,,25,rent,,700.0,14.0,38309885,flat,Madrid,3,False,49.0,good,"{u'subtitle': u'Pradolongo, Madrid', u'title': u'Piso en calle de Miramadrid'}",https://img3.idealista.com/blur/WEB_LISTING/0/id.pro.es.image.master/5e/f5/6e/234259641.jpg,http://www.idealista.com/38309885
98,las Tablas,1,es,{u'typology': u'flat'},Fuencarral,True,,5,False,True,False,False,40.5122419,-3.6680444,Madrid,Las Tablas,False,,7,rent,"{u'hasParkingSpace': True, u'isParkingSpaceIncludedInPrice': True}",990.0,20.0,38311903,flat,Madrid,1,False,50.0,good,"{u'subtitle': u'Las Tablas, Madrid', u'title': u'Piso en las Tablas'}",https://img3.idealista.com/blur/WEB_LISTING/0/id.pro.es.image.master/7d/3f/31/234292242.jpg,http://www.idealista.com/38311903
99,Getafe Centro,2,es,{u'typology': u'flat'},Getafe Centro,True,Get 1657,1,False,False,False,False,40.3086757,-3.7287079,Getafe,,False,,14,rent,,650.0,7.0,38311862,flat,Madrid,3,False,100.0,good,"{u'subtitle': u'Getafe Centro, Getafe', u'title': u'Piso'}",https://img3.idealista.com/blur/WEB_LISTING/90/id.pro.es.image.master/77/1f/1e/234291743.jpg,http://www.idealista.com/38311862
100,barrio Sanchinarro,2,es,{u'typology': u'flat'},Hortaleza,True,,1,False,True,False,False,40.4891694,-3.658662,Madrid,Sanchinarro,False,,10,rent,"{u'hasParkingSpace': True, u'isParkingSpaceIncludedInPrice': True}",1350.0,12.0,38311919,flat,Madrid,3,False,116.0,good,"{u'subtitle': u'Sanchinarro, Madrid', u'title': u'Piso'}",https://img3.idealista.com/blur/WEB_LISTING/0/id.pro.es.image.master/b3/72/e1/234293504.jpg,http://www.idealista.com/38311919
101,barrio Chueca-Justicia,1,es,{u'typology': u'flat'},Centro,False,01472,2,False,True,False,True,40.4213121,-3.6996804,Madrid,Chueca-Justicia,False,,14,rent,,1900.0,21.0,38311859,flat,Madrid,2,False,90.0,good,"{u'subtitle': u'Chueca-Justicia, Madrid', u'title': u'Piso'}",https://img3.idealista.com/blur/WEB_LISTING/0/id.pro.es.image.master/a7/2b/10/234291731.jpg,http://www.idealista.com/38311859
102,calle de Ulises,1,es,{u'typology': u'flat'},Hortaleza,True,"ULISES, 96",2,False,True,False,False,40.4601468,-3.6483468,Madrid,Canillas,False,,16,rent,,1200.0,15.0,38311947,flat,Madrid,2,False,80.0,good,"{u'subtitle': u'Canillas, Madrid', u'title': u'Piso en calle de Ulises'}",https://img3.idealista.com/blur/WEB_LISTING/0/id.pro.es.image.master/c5/41/6b/234292927.jpg,http://www.idealista.com/38311947
103,calle Isla de Zanzibar,1,es,{u'typology': u'flat'},Fuencarral,True,LP_007,1,False,True,False,False,40.4806209,-3.7217694,Madrid,Peñagrande,False,,9,rent,"{u'parkingSpacePrice': 50.0, u'hasParkingSpace': True, u'isParkingSpaceIncludedInPrice': False}",850.0,17.0,28541513,flat,Madrid,2,False,50.0,good,"{u'subtitle': u'Peñagrande, Madrid', u'title': u'Piso en calle Isla de Zanzibar'}",https://img3.idealista.com/blur/WEB_LISTING/0/id.pro.es.image.master/ce/b0/ee/71578545.jpg,http://www.idealista.com/28541513
104,alcala,1,es,{u'typology': u'flat'},Salamanca,True,CM1282-031017,3,False,True,False,False,40.4289375,-3.666643,Madrid,Guindalera,False,,3,rent,,1100.0,13.0,38311939,flat,Madrid,2,False,85.0,good,"{u'subtitle': u'Guindalera, Madrid', u'title': u'Piso en alcala'}",https://img3.idealista.com/blur/WEB_LISTING/0/id.pro.es.image.master/77/f5/89/234292834.jpg,http://www.idealista.com/38311939
105,"calle General Varela, 35",1,es,{u'typology': u'flat'},Tetuán,True,,bj,False,True,False,False,40.4583651,-3.695156,Madrid,Cuzco-Castillejos,False,,15,rent,"{u'parkingSpacePrice': 70.0, u'hasParkingSpace': True, u'isParkingSpaceIncludedInPrice': False}",899.0,15.0,25750754,flat,Madrid,1,True,62.0,good,"{u'subtitle': u'Cuzco-Castillejos, Madrid', u'title': u'Piso en calle General Varela, 35'}",https://img3.idealista.com/blur/WEB_LISTING/0/id.pro.es.image.master/b2/fa/b5/33990375.jpg,http://www.idealista.com/25750754
106,"calle Monasterio de Caaveiro, 1",1,es,{u'typology': u'flat'},Fuencarral,True,,1,False,True,False,False,40.5053021,-3.6971623,Madrid,Montecarmelo,False,,5,rent,"{u'hasParkingSpace': True, u'isParkingSpaceIncludedInPrice': True}",850.0,15.0,27715623,flat,Madrid,2,True,56.0,good,"{u'subtitle': u'Montecarmelo, Madrid', u'title': u'Piso en calle Monasterio de Caaveiro, 1'}",https://img3.idealista.com/blur/WEB_LISTING/0/id.pro.es.image.master/db/ad/bc/59461507.jpg,http://www.idealista.com/27715623
107,calle de Miramadrid,1,es,{u'typology': u'flat'},Usera,True,AL-01551,3,False,False,False,False,40.3811821,-3.7087857,Madrid,Pradolongo,False,,25,rent,,700.0,14.0,38309885,flat,Madrid,3,False,49.0,good,"{u'subtitle': u'Pradolongo, Madrid', u'title': u'Piso en calle de Miramadrid'}",https://img3.idealista.com/blur/WEB_LISTING/0/id.pro.es.image.master/5e/f5/6e/234259641.jpg,http://www.idealista.com/38309885
108,las Tablas,1,es,{u'typology': u'flat'},Fuencarral,True,,5,False,True,False,False,40.5122419,-3.6680444,Madrid,Las Tablas,False,,7,rent,"{u'hasParkingSpace': True, u'isParkingSpaceIncludedInPrice': True}",990.0,20.0,38311903,flat,Madrid,1,False,50.0,good,"{u'subtitle': u'Las Tablas, Madrid', u'title': u'Piso en las Tablas'}",https://img3.idealista.com/blur/WEB_LISTING/0/id.pro.es.image.master/7d/3f/31/234292242.jpg,http://www.idealista.com/38311903
109,Getafe Centro,2,es,{u'typology': u'flat'},Getafe Centro,True,Get 1657,1,False,False,False,False,40.3086757,-3.7287079,Getafe,,False,,14,rent,,650.0,7.0,38311862,flat,Madrid,3,False,100.0,good,"{u'subtitle': u'Getafe Centro, Getafe', u'title': u'Piso'}",https://img3.idealista.com/blur/WEB_LISTING/90/id.pro.es.image.master/77/1f/1e/234291743.jpg,http://www.idealista.com/38311862
110,paseo Tierra de Melide,2,es,{u'typology': u'flat'},Fuencarral,True,0A-PABLO-026,2,False,True,False,False,40.5051389,-3.6616811,Madrid,Las Tablas,False,,8,rent,"{u'hasParkingSpace': True, u'isParkingSpaceIncludedInPrice': True}",1150.0,13.0,38311835,flat,Madrid,2,False,90.0,good,"{u'subtitle': u'Las Tablas, Madrid', u'title': u'Piso en paseo Tierra de Melide'}",https://img3.idealista.com/blur/WEB_LISTING/0/id.pro.es.image.master/73/92/6b/234291763.jpg,http://www.idealista.com/38311835
111,paseo Virgen del Puerto,1,es,{u'typology': u'flat'},Arganzuela,True,ALQUILER Pº VIRGEN DEL PUERTO,1,False,True,False,False,40.4133125,-3.7215146,Madrid,Imperial,False,,10,rent,,950.0,20.0,38311836,flat,Madrid,1,False,48.0,good,"{u'subtitle': u'Imperial, Madrid', u'title': u'Piso en paseo Virgen del Puerto'}",https://img3.idealista.com/blur/WEB_LISTING/0/id.pro.es.image.master/73/a2/56/234291643.jpg,http://www.idealista.com/38311836
112,calle de Ulises,1,es,{u'typology': u'flat'},Hortaleza,True,"ULISES, 96",2,False,True,False,False,40.4578468,-3.6459468,Madrid,Canillas,False,,16,rent,,1200.0,15.0,38311842,flat,Madrid,2,False,80.0,good,"{u'subtitle': u'Canillas, Madrid', u'title': u'Piso en calle de Ulises'}",https://img3.idealista.com/blur/WEB_LISTING/0/id.pro.es.image.master/cb/78/d5/234291919.jpg,http://www.idealista.com/38311842
113,barrio Palomas,2,es,{u'typology': u'flat'},Hortaleza,True,01467,2,False,True,False,True,40.4561091,-3.6187196,Madrid,Palomas,False,,22,rent,"{u'hasParkingSpace': True, u'isParkingSpaceIncludedInPrice': True}",1900.0,12.0,38311732,flat,Madrid,4,False,157.0,good,"{u'subtitle': u'Palomas, Madrid', u'title': u'Piso'}",https://img3.idealista.com/blur/WEB_LISTING/0/id.pro.es.image.master/ef/7b/73/234290720.jpg,http://www.idealista.com/38311732
114,barrio Imperial,1,es,{u'typology': u'flat'},Arganzuela,True,MON-1127,6,False,True,False,False,40.4049682,-3.7117949,Madrid,Imperial,False,,5,rent,"{u'hasParkingSpace': True, u'isParkingSpaceIncludedInPrice': True}",1250.0,19.0,38311745,flat,Madrid,1,False,66.0,good,"{u'subtitle': u'Imperial, Madrid', u'title': u'Piso'}",https://img3.idealista.com/blur/WEB_LISTING/0/id.pro.es.image.master/bd/9d/f2/234290005.jpg,http://www.idealista.com/38311745
115,calle de Dulce Chacón,2,es,{u'typology': u'flat'},Hortaleza,True,,17,False,True,True,False,40.484561,-3.6691767,Madrid,Virgen del Cortijo - Manoteras,False,,8,rent,"{u'hasParkingSpace': True, u'isParkingSpaceIncludedInPrice': True}",1300.0,14.0,38311760,flat,Madrid,2,False,96.0,good,"{u'subtitle': u'Virgen del Cortijo - Manoteras, Madrid', u'title': u'Piso en calle de Dulce Chacón'}",https://img3.idealista.com/blur/WEB_LISTING/0/id.pro.es.image.master/89/b5/78/234290277.jpg,http://www.idealista.com/38311760
116,calle del General Lacy,1,es,"{u'subTypology': u'studio', u'typology': u'flat'}",Arganzuela,False,CH038,3,False,True,False,False,40.4040031,-3.6893405,Madrid,Palos de Moguer,False,,25,rent,,750.0,15.0,38311839,studio,Madrid,0,False,50.0,good,"{u'subtitle': u'Palos de Moguer, Madrid', u'title': u'Estudio en calle del General Lacy'}",https://img3.idealista.com/blur/WEB_LISTING/0/id.pro.es.image.master/bc/83/87/234292104.jpg,http://www.idealista.com/38311839
117,barrio Valdezarza,1,es,{u'typology': u'flat'},Moncloa,True,SGF115530,5,False,True,False,False,40.4695799,-3.72005,Madrid,Valdezarza,False,,18,rent,,1100.0,14.0,38311795,flat,Madrid,2,False,80.0,good,"{u'subtitle': u'Valdezarza, Madrid', u'title': u'Piso'}",https://img3.idealista.com/blur/WEB_LISTING/0/id.pro.es.image.master/58/b3/b7/234290793.jpg,http://www.idealista.com/38311795
118,sanchinarro,2,es,{u'typology': u'flat'},Hortaleza,True,,2,False,True,False,False,40.493707,-3.6578745,Madrid,Sanchinarro,False,,29,rent,,1300.0,13.0,38311714,flat,Madrid,3,False,100.0,good,"{u'subtitle': u'Sanchinarro, Madrid', u'title': u'Piso en sanchinarro'}",https://img3.idealista.com/blur/WEB_LISTING/0/id.pro.es.image.master/aa/7f/78/234289570.jpg,http://www.idealista.com/38311714
119,velazquez,1,es,{u'typology': u'flat'},Salamanca,False,CM1281-031017,3,False,True,False,False,40.4356237,-3.6841883,Madrid,Castellana,False,,6,rent,,1300.0,20.0,38311793,flat,Madrid,1,False,65.0,good,"{u'subtitle': u'Castellana, Madrid', u'title': u'Piso en velazquez'}",https://img3.idealista.com/blur/WEB_LISTING/0/id.pro.es.image.master/0e/f4/d3/234290749.jpg,http://www.idealista.com/38311793
120,barrio Guindalera,2,es,{u'typology': u'flat'},Salamanca,True,,3,False,False,False,False,40.4331813,-3.6720467,Madrid,Guindalera,False,,24,rent,,1300.0,12.0,38311722,flat,Madrid,2,False,110.0,good,"{u'subtitle': u'Guindalera, Madrid', u'title': u'Piso'}",https://img3.idealista.com/blur/WEB_LISTING/0/id.pro.es.image.master/9c/c3/97/234295083.jpg,http://www.idealista.com/38311722
121,barrio Las Tablas,2,es,{u'typology': u'flat'},Fuencarral,True,2 hab (las tablas),1,False,True,False,False,40.5075578,-3.677472,Madrid,Las Tablas,False,,40,rent,"{u'hasParkingSpace': True, u'isParkingSpaceIncludedInPrice': True}",1250.0,14.0,38311698,flat,Madrid,2,False,90.0,good,"{u'subtitle': u'Las Tablas, Madrid', u'title': u'Piso'}",https://img3.idealista.com/blur/WEB_LISTING/0/id.pro.es.image.master/43/95/a1/234289290.jpg,http://www.idealista.com/38311698
122,barrio San Diego,1,es,{u'typology': u'flat'},Puente de Vallecas,True,,2,False,False,False,False,40.3937063,-3.6678667,Madrid,San Diego,False,,18,rent,,800.0,9.0,38309252,flat,Madrid,3,False,90.0,good,"{u'subtitle': u'San Diego, Madrid', u'title': u'Piso'}",https://img3.idealista.com/blur/WEB_LISTING/0/id.pro.es.image.master/e8/a3/33/234289673.jpg,http://www.idealista.com/38309252
123,barrio Recoletos,4,es,{u'typology': u'flat'},Salamanca,True,M-41-00602,6,False,True,False,False,40.4210553,-3.687295,Madrid,Recoletos,False,,21,rent,,3900.0,18.0,38311727,flat,Madrid,4,False,219.0,good,"{u'subtitle': u'Recoletos, Madrid', u'title': u'Piso'}",https://img3.idealista.com/blur/WEB_LISTING/0/id.pro.es.image.master/83/62/f9/234290104.jpg,http://www.idealista.com/38311727
124,El Soto de la Moraleja,6,es,{u'typology': u'flat'},El Soto de la Moraleja,True,00377,2,False,True,False,True,40.5203851,-3.6420413,La Moraleja,,False,,34,rent,"{u'hasParkingSpace': True, u'isParkingSpaceIncludedInPrice': True}",4200.0,14.0,38311630,flat,Madrid,5,False,301.0,good,"{u'subtitle': u'El Soto de la Moraleja, La Moraleja', u'title': u'Piso'}",https://img3.idealista.com/blur/WEB_LISTING/0/id.pro.es.image.master/b6/d5/c6/234288385.jpg,http://www.idealista.com/38311630
125,calle de Palos de la Frontera,1,es,{u'typology': u'flat'},Arganzuela,True,184_17,4,False,True,False,False,40.4016198,-3.6966329,Madrid,Palos de Moguer,False,,29,rent,,850.0,10.0,38309863,flat,Madrid,1,False,87.0,good,"{u'subtitle': u'Palos de Moguer, Madrid', u'title': u'Piso en calle de Palos de la Frontera'}",https://img3.idealista.com/blur/WEB_LISTING/0/id.pro.es.image.master/8d/b0/b3/234287728.jpg,http://www.idealista.com/38309863
126,"paseo de la Esperanza, 55",1,es,"{u'subTypology': u'studio', u'typology': u'flat'}",Arganzuela,False,,3,False,True,False,False,40.3984557,-3.7024394,Madrid,Acacias,False,,12,rent,,475.0,12.0,27507529,studio,Madrid,0,True,40.0,good,"{u'subtitle': u'Acacias, Madrid', u'title': u'Estudio en paseo de la Esperanza, 55'}",https://img3.idealista.com/blur/WEB_LISTING/90/id.pro.es.image.master/5d/79/03/234283419.jpg,http://www.idealista.com/27507529
127,barrio Conde Orgaz-Piovera,5,es,{u'typology': u'flat'},Hortaleza,True,01470,2,False,True,False,True,40.4542238,-3.6422378,Madrid,Conde Orgaz-Piovera,False,,30,rent,"{u'hasParkingSpace': True, u'isParkingSpaceIncludedInPrice': True}",5500.0,21.0,38311507,flat,Madrid,4,False,260.0,good,"{u'subtitle': u'Conde Orgaz-Piovera, Madrid', u'title': u'Piso'}",https://img3.idealista.com/blur/WEB_LISTING/0/id.pro.es.image.master/38/12/05/234286806.jpg,http://www.idealista.com/38311507
128,calle de Ubeda,2,es,{u'typology': u'flat'},Fuencarral,True,0A-PABLO-025,3,False,True,False,False,40.4812298,-3.7137707,Madrid,Peñagrande,False,,8,rent,"{u'hasParkingSpace': True, u'isParkingSpaceIncludedInPrice': True}",1100.0,13.0,38311661,flat,Madrid,3,False,85.0,good,"{u'subtitle': u'Peñagrande, Madrid', u'title': u'Piso en calle de Ubeda'}",https://img3.idealista.com/blur/WEB_LISTING/0/id.pro.es.image.master/75/4d/9f/234288479.jpg,http://www.idealista.com/38311661
129,calle Redecilla del Camino,2,es,{u'typology': u'flat'},Fuencarral,True,PC31081701,3,False,True,False,False,40.50713,-3.66759,Madrid,Las Tablas,False,,13,rent,"{u'hasParkingSpace': True, u'isParkingSpaceIncludedInPrice': True}",1100.0,12.0,38311641,flat,Madrid,2,False,90.0,good,"{u'subtitle': u'Las Tablas, Madrid', u'title': u'Piso en calle Redecilla del Camino'}",https://img3.idealista.com/blur/WEB_LISTING/0/id.pro.es.image.master/6a/a8/c1/234288272.jpg,http://www.idealista.com/38311641
130,acantita,2,es,{u'typology': u'flat'},Villaverde,False,,1,False,True,False,False,40.3461147,-3.675851,Madrid,Butarque,False,,27,rent,"{u'hasParkingSpace': True, u'isParkingSpaceIncludedInPrice': True}",750.0,8.0,38311411,flat,Madrid,3,False,95.0,good,"{u'subtitle': u'Butarque, Madrid', u'title': u'Piso en acantita'}",https://img3.idealista.com/blur/WEB_LISTING/0/id.pro.es.image.master/54/5e/d5/234284688.jpg,http://www.idealista.com/38311411
131,"calle de Juan Martín El Empecinado, 6",1,es,{u'typology': u'flat'},Arganzuela,True,,4,False,True,False,False,40.402087,-3.6881584,Madrid,Palos de Moguer,False,,23,rent,,1000.0,12.0,35385406,flat,Madrid,2,True,85.0,good,"{u'subtitle': u'Palos de Moguer, Madrid', u'title': u'Piso en calle de Juan Martín El Empecinado, 6'}",https://img3.idealista.com/blur/WEB_LISTING/0/id.pro.es.image.master/b3/e4/1d/179584747.jpg,http://www.idealista.com/35385406
132,"calle de Fereluz, 18",1,es,{u'typology': u'flat'},Tetuán,True,,bj,False,False,False,False,40.4632432,-3.7010749,Madrid,Valdeacederas,False,,8,rent,,650.0,12.0,27666119,flat,Madrid,1,True,55.0,good,"{u'subtitle': u'Valdeacederas, Madrid', u'title': u'Piso en calle de Fereluz, 18'}",https://img3.idealista.com/blur/WEB_LISTING/0/id.pro.es.image.master/2e/cf/1f/234287319.jpg,http://www.idealista.com/27666119
133,"avenida del Talgo, 156",2,es,"{u'subTypology': u'penthouse', u'typology': u'flat'}",Moncloa,True,3248-12231,4,False,True,False,False,40.4482508,-3.7821553,Madrid,Aravaca,False,,51,rent,"{u'hasParkingSpace': True, u'isParkingSpaceIncludedInPrice': True}",2400.0,15.0,38311622,penthouse,Madrid,4,True,161.0,good,"{u'subtitle': u'Aravaca, Madrid', u'title': u'Ático en avenida del Talgo, 156'}",https://img3.idealista.com/blur/WEB_LISTING/0/id.pro.es.image.master/7a/00/5f/234287981.jpg,http://www.idealista.com/38311622
134,"calle de Arrozal, 8",1,es,{u'typology': u'flat'},San Blas,True,G10321,2,False,False,True,False,40.4276297,-3.6209909,Madrid,Amposta,False,,7,rent,,695.0,15.0,38311540,flat,Madrid,2,True,47.0,good,"{u'subtitle': u'Amposta, Madrid', u'title': u'Piso en calle de Arrozal, 8'}",https://img3.idealista.com/blur/WEB_LISTING/0/id.pro.es.image.master/4e/4c/fa/234286760.jpg,http://www.idealista.com/38311540
135,calle Polvoranca,1,es,{u'typology': u'flat'},Centro,True,,3,False,False,False,False,40.3499247,-3.8274962,Alcorcón,Casco Antiguo,False,,15,rent,,600.0,8.0,38311386,flat,Madrid,4,False,80.0,good,"{u'subtitle': u'Casco Antiguo, Alcorcón', u'title': u'Piso en calle Polvoranca'}",https://img3.idealista.com/blur/WEB_LISTING/0/id.pro.es.image.master/6d/15/b5/234284385.jpg,http://www.idealista.com/38311386
136,barrio Zona Estación,1,es,{u'typology': u'flat'},Rozas Centro,True,REAL-VIV25,3,False,True,False,False,40.4929435,-3.8716144,Las Rozas de Madrid,Zona Estación,False,,5,rent,"{u'hasParkingSpace': True, u'isParkingSpaceIncludedInPrice': True}",650.0,13.0,38311521,flat,Madrid,1,False,50.0,good,"{u'subtitle': u'Zona Estación, Las Rozas de Madrid', u'title': u'Piso'}",https://img3.idealista.com/blur/WEB_LISTING/0/id.pro.es.image.master/fd/e5/f5/234286324.jpg,http://www.idealista.com/38311521
137,"calle Otamendi, 1",1,es,{u'typology': u'flat'},Tetuán,True,OP1EC,en,False,True,False,False,40.4542666,-3.7062623,Madrid,Bellas Vistas,False,,12,rent,"{u'parkingSpacePrice': 90.0, u'hasParkingSpace': True, u'isParkingSpaceIncludedInPrice': False}",685.0,19.0,25572438,flat,Madrid,1,True,36.0,good,"{u'subtitle': u'Bellas Vistas, Madrid', u'title': u'Piso en calle Otamendi, 1'}",https://img3.idealista.com/blur/WEB_LISTING/0/id.pro.es.image.master/35/f8/4d/205201801.jpg,http://www.idealista.com/25572438
138,"calle de López de Hoyos, 108",2,es,{u'typology': u'flat'},Chamartín,True,,2,False,False,False,False,40.4437369,-3.6745436,Madrid,Prosperidad,False,,13,rent,,1450.0,16.0,38311311,flat,Madrid,3,True,90.0,good,"{u'subtitle': u'Prosperidad, Madrid', u'title': u'Piso en calle de López de Hoyos, 108'}",https://img3.idealista.com/blur/WEB_LISTING/0/id.pro.es.image.master/08/26/49/234283797.jpg,http://www.idealista.com/38311311
139,calle Pico de Majalasna,2,es,{u'typology': u'flat'},Fuencarral,True,0A-PABLO-024,2,False,True,False,False,40.4837601,-3.7228171,Madrid,Peñagrande,False,,6,rent,,925.0,11.0,38311440,flat,Madrid,2,False,85.0,good,"{u'subtitle': u'Peñagrande, Madrid', u'title': u'Piso en calle Pico de Majalasna'}",https://img3.idealista.com/blur/WEB_LISTING/0/id.pro.es.image.master/c0/cf/b0/234284928.jpg,http://www.idealista.com/38311440
140,"calle de Canarias, 53",1,es,{u'typology': u'flat'},Arganzuela,False,es2/Canar/oct17,bj,False,True,False,False,40.4017147,-3.6889496,Madrid,Palos de Moguer,False,,6,rent,,700.0,16.0,38311432,flat,Madrid,2,True,45.0,good,"{u'subtitle': u'Palos de Moguer, Madrid', u'title': u'Piso en calle de Canarias, 53'}",https://img3.idealista.com/blur/WEB_LISTING/0/id.pro.es.image.master/83/26/b7/234286161.jpg,http://www.idealista.com/38311432
141,"calle Rufino Blanco, 18",1,es,{u'typology': u'flat'},Salamanca,False,,4,False,True,False,False,40.4270041,-3.6657897,Madrid,Fuente del Berro,False,,14,rent,,780.0,17.0,38311114,flat,Madrid,1,True,46.0,good,"{u'subtitle': u'Fuente del Berro, Madrid', u'title': u'Piso en calle Rufino Blanco, 18'}",https://img3.idealista.com/blur/WEB_LISTING/0/id.pro.es.image.master/b8/c9/e5/234279230.jpg,http://www.idealista.com/38311114
142,"calle TOLEDO, 134",1,es,{u'typology': u'flat'},Arganzuela,True,TU-MPA,6,False,True,False,False,40.4046682,-3.7128949,Madrid,Imperial,False,,5,rent,"{u'hasParkingSpace': True, u'isParkingSpaceIncludedInPrice': True}",1250.0,19.0,38311248,flat,Madrid,1,True,66.0,good,"{u'subtitle': u'Imperial, Madrid', u'title': u'Piso en calle TOLEDO, 134'}",https://img3.idealista.com/blur/WEB_LISTING/0/id.pro.es.image.master/92/98/6b/234283430.jpg,http://www.idealista.com/38311248
143,avenida de Bruselas,2,es,{u'typology': u'flat'},Salamanca,True,,1,False,True,False,False,40.4416726,-3.6634741,Madrid,Guindalera,False,,6,rent,,1800.0,9.0,38311377,flat,Madrid,3,False,200.0,good,"{u'subtitle': u'Guindalera, Madrid', u'title': u'Piso en avenida de Bruselas'}",https://img3.idealista.com/blur/WEB_LISTING/0/id.pro.es.image.master/b6/be/78/234284050.jpg,http://www.idealista.com/38311377
144,San Crispín - La Estación Consorcio,2,es,{u'typology': u'flat'},San Crispín - La Estación Consorcio,False,RP184201734853,2,False,True,False,False,40.6476061,-3.778371,Colmenar Viejo,,False,,25,rent,"{u'hasParkingSpace': True, u'isParkingSpaceIncludedInPrice': True}",850.0,7.0,38311390,flat,Madrid,3,False,126.0,good,"{u'subtitle': u'San Crispín - La Estación Consorcio, Colmenar Viejo', u'title': u'Piso'}",https://img3.idealista.com/blur/WEB_LISTING/0/id.pro.es.image.master/00/8f/97/234283900.jpg,http://www.idealista.com/38311390
145,barrio Ventilla-Almenara,1,es,{u'typology': u'flat'},Tetuán,True,SGF116259,2,False,True,False,False,40.4684424,-3.6975114,Madrid,Ventilla-Almenara,False,,22,rent,"{u'hasParkingSpace': True, u'isParkingSpaceIncludedInPrice': True}",1000.0,17.0,38311322,flat,Madrid,2,False,60.0,good,"{u'subtitle': u'Ventilla-Almenara, Madrid', u'title': u'Piso'}",https://img3.idealista.com/blur/WEB_LISTING/0/id.pro.es.image.master/88/ea/6e/234283142.jpg,http://www.idealista.com/38311322
146,"calle Monaterio de Caaveiro, 18",1,es,"{u'subTypology': u'penthouse', u'typology': u'flat'}",Fuencarral,True,,4,False,True,False,False,40.5059225,-3.6976315,Madrid,Montecarmelo,False,,18,rent,"{u'hasParkingSpace': True, u'isParkingSpaceIncludedInPrice': True}",950.0,17.0,27903642,penthouse,Madrid,1,True,55.0,good,"{u'subtitle': u'Montecarmelo, Madrid', u'title': u'Ático en calle Monaterio de Caaveiro, 18'}",https://img3.idealista.com/blur/WEB_LISTING/0/id.pro.es.image.master/ac/2d/99/154390922.jpg,http://www.idealista.com/27903642
147,Ciudalcampo,6,es,"{u'subTypology': u'independantHouse', u'typology': u'chalet'}",,False,XA 806,,False,,False,False,40.6336361,-3.5940247,Ciudalcampo,,False,,41,rent,"{u'hasParkingSpace': True, u'isParkingSpaceIncludedInPrice': True}",3500.0,6.0,38311225,chalet,Madrid,6,False,550.0,good,"{u'subtitle': u'Ciudalcampo', u'title': u'Casa independiente'}",https://img3.idealista.com/blur/WEB_LISTING/0/id.pro.es.image.master/ea/30/71/234281506.jpg,http://www.idealista.com/38311225
148,avenida PIO XII,1,es,{u'typology': u'flat'},Chamartín,True,LJ28091702,12,False,True,False,False,40.4701381,-3.6755153,Madrid,Castilla,False,,8,rent,,845.0,13.0,38311309,flat,Madrid,1,False,65.0,good,"{u'subtitle': u'Castilla, Madrid', u'title': u'Piso en avenida PIO XII'}",https://img3.idealista.com/blur/WEB_LISTING/0/id.pro.es.image.master/6b/86/a3/234283110.jpg,http://www.idealista.com/38311309
149,barrio Chueca-Justicia,3,es,{u'typology': u'flat'},Centro,True,EOR21037,4,False,True,False,False,40.4247323,-3.6948207,Madrid,Chueca-Justicia,False,,16,rent,,2700.0,20.0,38311236,flat,Madrid,2,False,132.0,good,"{u'subtitle': u'Chueca-Justicia, Madrid', u'title': u'Piso'}",https://img3.idealista.com/blur/WEB_LISTING/0/id.pro.es.image.master/28/bf/59/234281729.jpg,http://www.idealista.com/38311236
150,padre Damian,3,es,{u'typology': u'flat'},Chamartín,True,515,3,False,True,False,False,40.4598288,-3.6874877,Madrid,Nueva España,False,,35,rent,,3200.0,13.0,38310829,flat,Madrid,4,False,241.0,good,"{u'subtitle': u'Nueva España, Madrid', u'title': u'Piso en padre Damian'}",https://img3.idealista.com/blur/WEB_LISTING/0/id.pro.es.image.master/9a/84/df/234274069.jpg,http://www.idealista.com/38310829
151,calle de Blasco de Garay,1,es,{u'typology': u'flat'},Chamberí,False,CM1280-031017,2,False,True,False,False,40.4334296,-3.7107153,Madrid,Arapiles,False,,6,rent,,1000.0,24.0,38311122,flat,Madrid,1,False,42.0,good,"{u'subtitle': u'Arapiles, Madrid', u'title': u'Piso en calle de Blasco de Garay'}",https://img3.idealista.com/blur/WEB_LISTING/0/id.pro.es.image.master/35/72/26/234279215.jpg,http://www.idealista.com/38311122
152,barrio Prosperidad,2,es,{u'typology': u'flat'},Chamartín,True,KHP001,4,False,True,False,False,40.4411495,-3.6707942,Madrid,Prosperidad,False,,9,rent,,1350.0,11.0,38311108,flat,Madrid,3,False,118.0,good,"{u'subtitle': u'Prosperidad, Madrid', u'title': u'Piso'}",https://img3.idealista.com/blur/WEB_LISTING/0/id.pro.es.image.master/c3/3c/5f/234278826.jpg,http://www.idealista.com/38311108
153,"serrallo, 24",1,es,{u'typology': u'flat'},Tetuán,True,,bj,False,True,False,False,40.4597343,-3.7042387,Madrid,Berruguete,False,,17,rent,,650.0,11.0,38311082,flat,Madrid,1,True,60.0,good,"{u'subtitle': u'Berruguete, Madrid', u'title': u'Piso en serrallo, 24'}",https://img3.idealista.com/blur/WEB_LISTING/0/id.pro.es.image.master/be/75/cb/234278376.jpg,http://www.idealista.com/38311082
154,depositos s/n,3,es,"{u'subTypology': u'semidetachedHouse', u'typology': u'chalet'}",,False,Mara,,False,,False,False,40.5520856,-3.373336,Camarma de Esteruelas,,False,,42,rent,"{u'hasParkingSpace': True, u'isParkingSpaceIncludedInPrice': True}",950.0,5.0,38311037,chalet,Madrid,4,True,196.0,good,"{u'subtitle': u'Camarma de Esteruelas', u'title': u'Chalet pareado en depositos s/n'}",https://img3.idealista.com/blur/WEB_LISTING/0/id.pro.es.image.master/8d/8d/be/234277756.jpg,http://www.idealista.com/38311037
155,calle Salitre,1,es,{u'typology': u'flat'},Centro,False,32123,1,False,True,False,False,40.4066722,-3.7013325,Madrid,Lavapiés-Embajadores,False,,11,rent,,600.0,17.0,38311036,flat,Madrid,1,False,35.0,good,"{u'subtitle': u'Lavapiés-Embajadores, Madrid', u'title': u'Piso en calle Salitre'}",https://img3.idealista.com/blur/WEB_LISTING/0/id.pro.es.image.master/cd/52/c9/234277577.jpg,http://www.idealista.com/38311036
156,calle real,1,es,{u'typology': u'flat'},Casco Antiguo,True,25/17,2,False,False,False,False,40.5770448,-3.9291828,Torrelodones,,False,,1,rent,,550.0,14.0,38310986,flat,Madrid,1,False,40.0,good,"{u'subtitle': u'Casco Antiguo, Torrelodones', u'title': u'Piso en calle real'}",https://img3.idealista.com/blur/WEB_LISTING/0/id.pro.es.image.master/5a/41/41/234276858.jpg,http://www.idealista.com/38310986
157,barrio Virgen del Cortijo - Manoteras,1,es,{u'typology': u'flat'},Hortaleza,True,ciudadlineal-dulce,4,False,True,False,False,40.4868099,-3.6659447,Madrid,Virgen del Cortijo - Manoteras,False,,6,rent,"{u'hasParkingSpace': True, u'isParkingSpaceIncludedInPrice': True}",900.0,14.0,38310845,flat,Madrid,1,False,65.0,good,"{u'subtitle': u'Virgen del Cortijo - Manoteras, Madrid', u'title': u'Piso'}",https://img3.idealista.com/blur/WEB_LISTING/0/id.pro.es.image.master/bc/2c/27/234276485.jpg,http://www.idealista.com/38310845
158,plaza España,1,es,{u'typology': u'flat'},Juan de la Cierva,True,,4,False,True,False,False,40.3106108,-3.7252361,Getafe,,False,,9,rent,,700.0,10.0,38310982,flat,Madrid,2,False,70.0,good,"{u'subtitle': u'Juan de la Cierva, Getafe', u'title': u'Piso en plaza España'}",https://img3.idealista.com/blur/WEB_LISTING/0/id.pro.es.image.master/5f/63/49/234277718.jpg,http://www.idealista.com/38310982
159,barrio Lista,1,es,{u'typology': u'flat'},Salamanca,False,MAGEDI100,3,False,True,False,False,40.4302738,-3.6789454,Madrid,Lista,False,,23,rent,,1250.0,14.0,38310946,flat,Madrid,3,False,90.0,good,"{u'subtitle': u'Lista, Madrid', u'title': u'Piso'}",https://img3.idealista.com/blur/WEB_LISTING/0/id.pro.es.image.master/cc/30/70/234276741.jpg,http://www.idealista.com/38310946
160,calle Alcalá,2,es,{u'typology': u'flat'},Salamanca,True,Alcala,3,False,True,False,False,40.4289297,-3.6660592,Madrid,Guindalera,False,,21,rent,,1700.0,12.0,38310795,flat,Madrid,3,False,140.0,good,"{u'subtitle': u'Guindalera, Madrid', u'title': u'Piso en calle Alcalá'}",https://img3.idealista.com/blur/WEB_LISTING/0/id.pro.es.image.master/2e/18/ca/234273431.jpg,http://www.idealista.com/38310795
161,calle de García de Paredes,3,es,{u'typology': u'flat'},Chamberí,True,0A-KATY-002,3,False,True,False,False,40.4381878,-3.6979655,Madrid,Almagro,False,,6,rent,"{u'hasParkingSpace': True, u'isParkingSpaceIncludedInPrice': True}",2450.0,15.0,38310861,flat,Madrid,3,False,160.0,good,"{u'subtitle': u'Almagro, Madrid', u'title': u'Piso en calle de García de Paredes'}",https://img3.idealista.com/blur/WEB_LISTING/0/id.pro.es.image.master/be/3a/c7/234274392.jpg,http://www.idealista.com/38310861
162,barrio Lavapiés-Embajadores,1,es,{u'typology': u'flat'},Centro,True,ADH018035,2,False,False,False,False,40.4121301,-3.7076607,Madrid,Lavapiés-Embajadores,False,,13,rent,,1100.0,17.0,38310830,flat,Madrid,1,False,63.0,good,"{u'subtitle': u'Lavapiés-Embajadores, Madrid', u'title': u'Piso'}",https://img3.idealista.com/blur/WEB_LISTING/0/id.pro.es.image.master/6c/4d/db/234273872.jpg,http://www.idealista.com/38310830
163,"calle Luis de Hoyos Sainz, 56",2,es,{u'typology': u'flat'},Moratalaz,True,ALQ-MAJ-17120,5,False,True,False,False,40.4045573,-3.6384247,Madrid,Vinateros,False,,16,rent,"{u'hasParkingSpace': True, u'isParkingSpaceIncludedInPrice': True}",875.0,9.0,38310793,flat,Madrid,3,True,100.0,good,"{u'subtitle': u'Vinateros, Madrid', u'title': u'Piso en calle Luis de Hoyos Sainz, 56'}",https://img3.idealista.com/blur/WEB_LISTING/0/id.pro.es.image.master/c6/79/f5/234273400.jpg,http://www.idealista.com/38310793
164,barrio Trafalgar,1,es,{u'typology': u'flat'},Chamberí,False,KH 28,4,False,True,False,False,40.4275368,-3.6989706,Madrid,Trafalgar,False,,16,rent,,1375.0,17.0,38310801,flat,Madrid,2,False,80.0,good,"{u'subtitle': u'Trafalgar, Madrid', u'title': u'Piso'}",https://img3.idealista.com/blur/WEB_LISTING/0/id.pro.es.image.master/cd/74/85/234273515.jpg,http://www.idealista.com/38310801
165,"calle de Tarragona, 24",1,es,{u'typology': u'flat'},Arganzuela,True,Tarragona 24 503,5,False,True,True,False,40.4014036,-3.6955638,Madrid,Palos de Moguer,False,,15,rent,,830.0,14.0,38310736,flat,Madrid,1,True,60.0,good,"{u'subtitle': u'Palos de Moguer, Madrid', u'title': u'Piso en calle de Tarragona, 24'}",https://img3.idealista.com/blur/WEB_LISTING/0/id.pro.es.image.master/96/0e/47/234272789.jpg,http://www.idealista.com/38310736
166,paseo CASTELLANA,2,es,{u'typology': u'flat'},Tetuán,True,2017,7,False,True,False,False,40.4542223,-3.6900359,Madrid,Cuatro Caminos,False,,32,rent,"{u'hasParkingSpace': True, u'isParkingSpaceIncludedInPrice': True}",1500.0,17.0,38310782,flat,Madrid,2,False,90.0,good,"{u'subtitle': u'Cuatro Caminos, Madrid', u'title': u'Piso en paseo CASTELLANA'}",https://img3.idealista.com/blur/WEB_LISTING/0/id.pro.es.image.master/87/37/9c/234273147.jpg,http://www.idealista.com/38310782
167,calle de Canillas,2,es,{u'typology': u'flat'},Chamartín,True,DI-084,2,False,True,False,False,40.4435952,-3.6738351,Madrid,Prosperidad,False,,36,rent,,1125.0,13.0,38309918,flat,Madrid,2,False,85.0,good,"{u'subtitle': u'Prosperidad, Madrid', u'title': u'Piso en calle de Canillas'}",https://img3.idealista.com/blur/WEB_LISTING/0/id.pro.es.image.master/ac/2e/24/234258820.jpg,http://www.idealista.com/38309918
168,barrio Prosperidad,2,es,"{u'subTypology': u'penthouse', u'typology': u'flat'}",Chamartín,True,,5,False,True,False,False,40.4500965,-3.6648657,Madrid,Prosperidad,False,,2,rent,"{u'hasParkingSpace': True, u'isParkingSpaceIncludedInPrice': True}",1360.0,13.0,38310603,penthouse,Madrid,2,False,105.0,good,"{u'subtitle': u'Prosperidad, Madrid', u'title': u'Ático'}",https://img3.idealista.com/blur/WEB_LISTING/0/id.pro.es.image.master/e5/d7/ff/234271963.jpg,http://www.idealista.com/38310603
169,calle de las Margaritas,1,es,{u'typology': u'flat'},Tetuán,False,LJ18091702,2,False,False,False,False,40.4556989,-3.7056436,Madrid,Berruguete,False,,8,rent,,750.0,17.0,38310712,flat,Madrid,1,False,45.0,good,"{u'subtitle': u'Berruguete, Madrid', u'title': u'Piso en calle de las Margaritas'}",https://img3.idealista.com/blur/WEB_LISTING/0/id.pro.es.image.master/8f/d0/84/234272004.jpg,http://www.idealista.com/38310712
170,"calle CEDRA, 21",1,es,{u'typology': u'flat'},Getafe norte,True,TU-MPA,bj,False,True,False,False,40.3233822,-3.7234984,Getafe,,False,,10,rent,"{u'hasParkingSpace': True, u'isParkingSpaceIncludedInPrice': True}",800.0,13.0,38310692,flat,Madrid,2,True,60.0,good,"{u'subtitle': u'Getafe norte, Getafe', u'title': u'Piso en calle CEDRA, 21'}",https://img3.idealista.com/blur/WEB_LISTING/0/id.pro.es.image.master/0d/58/d9/234271664.jpg,http://www.idealista.com/38310692
171,calle Alcalde Sainz de Baranda,1,es,{u'typology': u'flat'},Retiro,True,,1,False,True,False,False,40.4153797,-3.6725935,Madrid,Ibiza,False,,11,rent,,1100.0,22.0,38310596,flat,Madrid,1,False,50.0,good,"{u'subtitle': u'Ibiza, Madrid', u'title': u'Piso en calle Alcalde Sainz de Baranda'}",https://img3.idealista.com/blur/WEB_LISTING/0/id.pro.es.image.master/c8/b7/86/234270393.jpg,http://www.idealista.com/38310596
172,Alpedrete,2,es,{u'typology': u'flat'},,True,ALQ1434,1,False,False,False,False,40.6575377,-4.0413368,Alpedrete,,False,,13,rent,,650.0,7.0,38310664,flat,Madrid,2,False,95.0,good,"{u'subtitle': u'Alpedrete', u'title': u'Piso'}",https://img3.idealista.com/blur/WEB_LISTING/0/id.pro.es.image.master/54/c7/fd/234271198.jpg,http://www.idealista.com/38310664
173,barrio El Cantizal,2,es,{u'typology': u'flat'},El Cantizal,True,,bj,False,True,False,False,40.51725,-3.92815,Las Rozas de Madrid,El Cantizal,False,,16,rent,"{u'hasParkingSpace': True, u'isParkingSpaceIncludedInPrice': True}",1250.0,9.0,38310648,flat,Madrid,2,False,137.0,good,"{u'subtitle': u'El Cantizal, Las Rozas de Madrid', u'title': u'Piso'}",https://img3.idealista.com/blur/WEB_LISTING/0/id.pro.es.image.master/25/d7/0f/234270951.jpg,http://www.idealista.com/38310648
174,calle carrera de san francisco,1,es,{u'typology': u'flat'},Centro,True,01042,4,False,True,False,False,40.4114613,-3.7130216,Madrid,Palacio,False,,25,rent,,1700.0,22.0,38310668,flat,Madrid,2,False,79.0,good,"{u'subtitle': u'Palacio, Madrid', u'title': u'Piso en calle carrera de san francisco'}",https://img3.idealista.com/blur/WEB_LISTING/0/id.pro.es.image.master/0a/58/88/234271215.jpg,http://www.idealista.com/38310668
175,barrio Argüelles,1,es,{u'typology': u'flat'},Moncloa,True,MON-1126,2,False,True,False,False,40.4217854,-3.7145206,Madrid,Argüelles,False,,15,rent,,1200.0,17.0,38310639,flat,Madrid,2,False,70.0,good,"{u'subtitle': u'Argüelles, Madrid', u'title': u'Piso'}",https://img3.idealista.com/blur/WEB_LISTING/0/id.pro.es.image.master/2d/50/ec/234270904.jpg,http://www.idealista.com/38310639
176,calle de Zurbano,3,es,{u'typology': u'flat'},Chamberí,True,0A-LUCIA-003,2,False,True,False,False,40.4350997,-3.6949375,Madrid,Almagro,False,,9,rent,"{u'hasParkingSpace': True, u'isParkingSpaceIncludedInPrice': True}",2450.0,15.0,38310621,flat,Madrid,3,False,160.0,good,"{u'subtitle': u'Almagro, Madrid', u'title': u'Piso en calle de Zurbano'}",https://img3.idealista.com/blur/WEB_LISTING/0/id.pro.es.image.master/b6/72/dc/234270537.jpg,http://www.idealista.com/38310621
177,Fuente del Fresno,3,es,"{u'subTypology': u'duplex', u'typology': u'flat'}",,True,XA 7435,1,False,True,False,False,40.5971179,-3.5861314,Fuente del Fresno,,False,,40,rent,"{u'hasParkingSpace': True, u'isParkingSpaceIncludedInPrice': True}",2000.0,6.0,38310565,duplex,Madrid,4,False,330.0,good,"{u'subtitle': u'Fuente del Fresno', u'title': u'Dúplex'}",https://img3.idealista.com/blur/WEB_LISTING/0/id.pro.es.image.master/e0/03/e3/234269873.jpg,http://www.idealista.com/38310565
178,Centro - Manguilla,2,es,{u'typology': u'flat'},Centro - Manguilla,True,1002,2,False,True,False,False,40.5855033,-4.1322525,El Escorial,,False,,10,rent,,650.0,7.0,38310547,flat,Madrid,2,False,90.0,good,"{u'subtitle': u'Centro - Manguilla, El Escorial', u'title': u'Piso'}",https://img3.idealista.com/blur/WEB_LISTING/0/id.pro.es.image.master/6b/49/ff/234270361.jpg,http://www.idealista.com/38310547
179,"calle Fernando Poo, 17",1,es,{u'typology': u'flat'},Arganzuela,True,226/2017,1,False,True,False,False,40.3984901,-3.6994718,Madrid,Chopera,False,,15,rent,,900.0,14.0,38310517,flat,Madrid,3,True,65.0,good,"{u'subtitle': u'Chopera, Madrid', u'title': u'Piso en calle Fernando Poo, 17'}",https://img3.idealista.com/blur/WEB_LISTING/0/id.pro.es.image.master/7c/a2/1f/234269227.jpg,http://www.idealista.com/38310517
180,"calle Martin Machio, 8",1,es,{u'typology': u'flat'},Chamartín,True,,3,False,False,True,False,40.4480048,-3.6635867,Madrid,Prosperidad,False,,8,rent,,820.0,11.0,28638737,flat,Madrid,3,True,75.0,good,"{u'subtitle': u'Prosperidad, Madrid', u'title': u'Piso en calle Martin Machio, 8'}",https://img3.idealista.com/blur/WEB_LISTING/0/id.pro.es.image.master/95/1a/ed/73116105.jpg,http://www.idealista.com/28638737
181,"camino de Valladolid, 5",1,es,"{u'subTypology': u'duplex', u'typology': u'flat'}",Casco Antiguo,True,,1,False,False,False,False,40.5752863,-3.9291904,Torrelodones,,False,,15,rent,"{u'hasParkingSpace': True, u'isParkingSpaceIncludedInPrice': True}",750.0,15.0,38310592,duplex,Madrid,1,True,50.0,good,"{u'subtitle': u'Casco Antiguo, Torrelodones', u'title': u'Dúplex en camino de Valladolid, 5'}",https://img3.idealista.com/blur/WEB_LISTING/0/id.pro.es.image.master/58/44/b6/234270209.jpg,http://www.idealista.com/38310592
182,barrio Conde Orgaz-Piovera,4,es,"{u'subTypology': u'terracedHouse', u'typology': u'chalet'}",Hortaleza,False,MGR114531,,False,,False,False,40.4524174,-3.6503967,Madrid,Conde Orgaz-Piovera,False,,40,rent,"{u'hasParkingSpace': True, u'isParkingSpaceIncludedInPrice': True}",3100.0,8.0,38310569,chalet,Madrid,5,False,410.0,good,"{u'subtitle': u'Conde Orgaz-Piovera, Madrid', u'title': u'Chalet adosado'}",https://img3.idealista.com/blur/WEB_LISTING/0/id.pro.es.image.master/2c/16/68/234269765.jpg,http://www.idealista.com/38310569
183,barrio Bernabéu-Hispanoamérica,1,es,{u'typology': u'flat'},Chamartín,True,,3,False,True,False,False,40.4571,-3.67501,Madrid,Bernabéu-Hispanoamérica,False,,17,rent,,1300.0,12.0,33954763,flat,Madrid,3,False,110.0,good,"{u'subtitle': u'Bernabéu-Hispanoamérica, Madrid', u'title': u'Piso'}",https://img3.idealista.com/blur/WEB_LISTING/0/id.pro.es.image.master/fd/5a/8c/155455602.jpg,http://www.idealista.com/33954763
184,Sector B,3,es,{u'typology': u'flat'},Sector B,True,2031,3,False,True,True,False,40.4080192,-3.8951698,Boadilla del Monte,,False,,18,rent,"{u'hasParkingSpace': True, u'isParkingSpaceIncludedInPrice': True}",2000.0,9.0,38309977,flat,Madrid,4,False,220.0,good,"{u'subtitle': u'Sector B, Boadilla del Monte', u'title': u'Piso'}",https://img3.idealista.com/blur/WEB_LISTING/0/id.pro.es.image.master/71/9c/91/234259982.jpg,http://www.idealista.com/38309977
185,"calle de Silva, 21",1,es,{u'typology': u'flat'},Centro,True,804009,4,False,True,False,False,40.4216726,-3.7060484,Madrid,Malasaña-Universidad,False,,17,rent,,1300.0,17.0,38310558,flat,Madrid,2,True,75.0,good,"{u'subtitle': u'Malasaña-Universidad, Madrid', u'title': u'Piso en calle de Silva, 21'}",https://img3.idealista.com/blur/WEB_LISTING/0/id.pro.es.image.master/47/67/db/234269508.jpg,http://www.idealista.com/38310558
186,"calle Indalecio Fernandez, 42",1,es,{u'typology': u'flat'},Usera,True,,2,False,True,False,False,40.3818048,-3.6926217,Madrid,12 de Octubre-Orcasur,False,,9,rent,,575.0,13.0,25763849,flat,Madrid,1,True,45.0,good,"{u'subtitle': u'12 de Octubre-Orcasur, Madrid', u'title': u'Piso en calle Indalecio Fernandez, 42'}",https://img3.idealista.com/blur/WEB_LISTING/0/id.pro.es.image.master/4e/c0/64/34147802.jpg,http://www.idealista.com/25763849
187,Encinar de los Reyes,3,es,{u'typology': u'flat'},Encinar de los Reyes,True,XA 7424,2,False,True,False,False,40.5064259,-3.6266609,La Moraleja,,False,,7,rent,"{u'hasParkingSpace': True, u'isParkingSpaceIncludedInPrice': True}",3000.0,13.0,38310528,flat,Madrid,3,False,230.0,good,"{u'subtitle': u'Encinar de los Reyes, La Moraleja', u'title': u'Piso'}",https://img3.idealista.com/blur/WEB_LISTING/0/id.pro.es.image.master/ab/79/eb/234269191.jpg,http://www.idealista.com/38310528
188,calle de López de Hoyos,1,es,"{u'subTypology': u'penthouse', u'typology': u'flat'}",Salamanca,True,,7,False,True,False,False,40.4378092,-3.6858192,Madrid,Castellana,False,,37,rent,"{u'parkingSpacePrice': 150.0, u'hasParkingSpace': True, u'isParkingSpaceIncludedInPrice': False}",1600.0,17.0,38310368,penthouse,Madrid,2,False,95.0,good,"{u'subtitle': u'Castellana, Madrid', u'title': u'Ático en calle de López de Hoyos'}",https://img3.idealista.com/blur/WEB_LISTING/0/id.pro.es.image.master/3b/0e/a4/234266633.jpg,http://www.idealista.com/38310368
189,"paseo de los Parques, 5",4,es,"{u'subTypology': u'penthouse', u'typology': u'flat'}",Encinar de los Reyes,True,MrBldn,1,False,True,False,True,40.5133656,-3.6525959,La Moraleja,,False,,25,rent,"{u'hasParkingSpace': True, u'isParkingSpaceIncludedInPrice': True}",3000.0,13.0,38310022,penthouse,Madrid,3,True,237.0,good,"{u'subtitle': u'Encinar de los Reyes, La Moraleja', u'title': u'Ático en paseo de los Parques, 5'}",https://img3.idealista.com/blur/WEB_LISTING/0/id.pro.es.image.master/25/88/0d/234262386.jpg,http://www.idealista.com/38310022
190,barrio El Pinar- Punta Galea,2,es,"{u'subTypology': u'penthouse', u'typology': u'flat'}",El Pinar- Punta Galea,True,ALQ3910,2,False,True,False,False,40.5345499,-3.8955962,Las Rozas de Madrid,El Pinar- Punta Galea,False,,10,rent,"{u'hasParkingSpace': True, u'isParkingSpaceIncludedInPrice': True}",1100.0,12.0,38310492,penthouse,Madrid,2,False,90.0,good,"{u'subtitle': u'El Pinar- Punta Galea, Las Rozas de Madrid', u'title': u'Ático'}",https://img3.idealista.com/blur/WEB_LISTING/0/id.pro.es.image.master/61/bf/e1/234268629.jpg,http://www.idealista.com/38310492
191,calle Arganda,2,es,{u'typology': u'flat'},Arganzuela,True,Arganda 1300,6,False,True,False,False,40.4005764,-3.7083117,Madrid,Acacias,False,,14,rent,,1300.0,12.0,1463468,flat,Madrid,3,False,105.0,good,"{u'subtitle': u'Acacias, Madrid', u'title': u'Piso en calle Arganda'}",https://img3.idealista.com/blur/WEB_LISTING/0/id.pro.es.image.master/e3/6b/82/9546935.jpg,http://www.idealista.com/1463468
192,calle de Santander,3,es,"{u'subTypology': u'terracedHouse', u'typology': u'chalet'}",Las Castañeras - Bulevar,False,1194,,False,,False,False,40.2923864,-3.9105614,Arroyomolinos,,False,,27,rent,"{u'hasParkingSpace': True, u'isParkingSpaceIncludedInPrice': True}",1100.0,4.0,38310396,chalet,Madrid,4,False,250.0,good,"{u'subtitle': u'Las Castañeras - Bulevar, Arroyomolinos', u'title': u'Chalet adosado en calle de Santander'}",https://img3.idealista.com/blur/WEB_LISTING/0/id.pro.es.image.master/c0/10/b3/234267454.jpg,http://www.idealista.com/38310396
193,Zona norte,2,es,{u'typology': u'flat'},Zona norte,True,AG 116448,1,False,True,False,False,40.47702,-3.88121,Majadahonda,,False,,24,rent,"{u'hasParkingSpace': True, u'isParkingSpaceIncludedInPrice': True}",1500.0,9.0,38310412,flat,Madrid,3,False,160.0,good,"{u'subtitle': u'Zona norte, Majadahonda', u'title': u'Piso'}",https://img3.idealista.com/blur/WEB_LISTING/0/id.pro.es.image.master/f6/10/fc/234267161.jpg,http://www.idealista.com/38310412
194,barrio Almagro,3,es,{u'typology': u'flat'},Chamberí,True,KH 27,5,False,True,False,False,40.4318883,-3.6968694,Madrid,Almagro,False,,12,rent,"{u'hasParkingSpace': True, u'isParkingSpaceIncludedInPrice': True}",2450.0,14.0,38310471,flat,Madrid,3,False,170.0,good,"{u'subtitle': u'Almagro, Madrid', u'title': u'Piso'}",https://img3.idealista.com/blur/WEB_LISTING/0/id.pro.es.image.master/0d/b2/61/234268180.jpg,http://www.idealista.com/38310471
195,"calle Camilo José Cela, 14",1,es,{u'typology': u'flat'},Parque Empresarial,True,,1,False,True,False,False,40.5206264,-3.8948354,Las Rozas de Madrid,Parque Empresarial,False,,9,rent,"{u'parkingSpacePrice': 50.0, u'hasParkingSpace': True, u'isParkingSpaceIncludedInPrice': False}",850.0,12.0,26298530,flat,Madrid,1,True,70.0,good,"{u'subtitle': u'Parque Empresarial, Las Rozas de Madrid', u'title': u'Piso en calle Camilo José Cela, 14'}",https://img3.idealista.com/blur/WEB_LISTING/0/id.pro.es.image.master/8d/80/d8/40367924.jpg,http://www.idealista.com/26298530
196,mecenas,5,es,"{u'subTypology': u'independantHouse', u'typology': u'chalet'}",Hortaleza,False,,,False,,False,False,40.4631232,-3.6634582,Madrid,Pinar del Rey,False,,13,rent,"{u'hasParkingSpace': True, u'isParkingSpaceIncludedInPrice': True}",4500.0,9.0,38310414,chalet,Madrid,5,False,520.0,good,"{u'subtitle': u'Pinar del Rey, Madrid', u'title': u'Casa independiente en mecenas'}",https://img3.idealista.com/blur/WEB_LISTING/0/id.pro.es.image.master/dd/4e/56/234279522.jpg,http://www.idealista.com/38310414
197,"calle Real Betis, 15",1,es,{u'typology': u'flat'},Carabanchel,True,,1,False,True,False,False,40.3767475,-3.7427638,Madrid,Puerta Bonita,False,,14,rent,,500.0,11.0,1187335,flat,Madrid,1,True,46.0,good,"{u'subtitle': u'Puerta Bonita, Madrid', u'title': u'Piso en calle Real Betis, 15'}",https://img3.idealista.com/blur/WEB_LISTING/0/id.pro.es.image.master/44/c4/d6/120854772.jpg,http://www.idealista.com/1187335
198,Santo Domingo,5,es,"{u'subTypology': u'independantHouse', u'typology': u'chalet'}",,False,XA 7118,,False,,False,False,40.6348303,-3.570448,Santo Domingo,,False,,31,rent,,3500.0,12.0,38310391,chalet,Madrid,4,False,300.0,good,"{u'subtitle': u'Santo Domingo', u'title': u'Casa independiente'}",https://img3.idealista.com/blur/WEB_LISTING/0/id.pro.es.image.master/13/f5/cf/234266786.jpg,http://www.idealista.com/38310391
199,calle cerro del espino,3,es,{u'typology': u'flat'},Zona Monte el Pilar,False,455053,,False,True,False,False,40.45872,-3.86195,Majadahonda,,False,,13,rent,"{u'hasParkingSpace': True, u'isParkingSpaceIncludedInPrice': True}",2500.0,14.0,38310372,flat,Madrid,4,False,175.0,good,"{u'subtitle': u'Zona Monte el Pilar, Majadahonda', u'title': u'Piso en calle cerro del espino'}",https://img3.idealista.com/blur/WEB_LISTING/0/id.pro.es.image.master/8c/97/f2/234266427.jpg,http://www.idealista.com/38310372
200,calle coto blanco,2,es,{u'typology': u'flat'},Zona Monte el Pilar,False,455066,,False,True,False,False,40.46067,-3.86038,Majadahonda,,False,,10,rent,"{u'hasParkingSpace': True, u'isParkingSpaceIncludedInPrice': True}",2100.0,12.0,38310370,flat,Madrid,4,False,170.0,good,"{u'subtitle': u'Zona Monte el Pilar, Majadahonda', u'title': u'Piso en calle coto blanco'}",https://img3.idealista.com/blur/WEB_LISTING/0/id.pro.es.image.master/ff/5a/3b/234266412.jpg,http://www.idealista.com/38310370
201,barrio Argüelles,1,es,{u'typology': u'flat'},Moncloa,True,50001098,,False,True,False,False,40.4222854,-3.7147206,Madrid,Argüelles,False,,19,rent,,1200.0,17.0,38310354,flat,Madrid,2,False,70.0,good,"{u'subtitle': u'Argüelles, Madrid', u'title': u'Piso'}",https://img3.idealista.com/blur/WEB_LISTING/0/id.pro.es.image.master/dd/be/7b/234265781.jpg,http://www.idealista.com/38310354
202,calle del Cerro Negro,2,es,{u'typology': u'flat'},Retiro,True,5692017,5,False,True,True,False,40.3988885,-3.6720305,Madrid,Adelfas,False,,9,rent,"{u'hasParkingSpace': True, u'isParkingSpaceIncludedInPrice': True}",1200.0,10.0,38310315,flat,Madrid,3,False,123.0,good,"{u'subtitle': u'Adelfas, Madrid', u'title': u'Piso en calle del Cerro Negro'}",https://img3.idealista.com/blur/WEB_LISTING/0/id.pro.es.image.master/1a/33/be/233416921.jpg,http://www.idealista.com/38310315
203,claudio coello,1,es,{u'typology': u'flat'},Centro - Casco Histórico,True,,bj,False,False,False,False,40.5946851,-4.1452848,San Lorenzo de el Escorial,,False,,4,rent,,500.0,7.0,38310292,flat,Madrid,2,False,70.0,good,"{u'subtitle': u'Centro - Casco Histórico, San Lorenzo de el Escorial', u'title': u'Piso en claudio coello'}",https://img3.idealista.com/blur/WEB_LISTING/0/id.pro.es.image.master/89/23/5d/234310158.jpg,http://www.idealista.com/38310292
204,calle de García de Paredes,1,es,{u'typology': u'flat'},Chamberí,True,0A-KATY-001,3,False,True,False,False,40.4380611,-3.6954546,Madrid,Almagro,False,,7,rent,"{u'hasParkingSpace': True, u'isParkingSpaceIncludedInPrice': True}",1200.0,20.0,38310276,flat,Madrid,1,False,60.0,good,"{u'subtitle': u'Almagro, Madrid', u'title': u'Piso en calle de García de Paredes'}",https://img3.idealista.com/blur/WEB_LISTING/0/id.pro.es.image.master/2d/4b/db/234264978.jpg,http://www.idealista.com/38310276
205,barrio Conde Orgaz-Piovera,2,es,{u'typology': u'flat'},Hortaleza,True,MGR114801,4,False,True,False,False,40.459105,-3.635016,Madrid,Conde Orgaz-Piovera,False,,31,rent,"{u'hasParkingSpace': True, u'isParkingSpaceIncludedInPrice': True}",1700.0,14.0,38310259,flat,Madrid,3,False,120.0,renew,"{u'subtitle': u'Conde Orgaz-Piovera, Madrid', u'title': u'Piso'}",https://img3.idealista.com/blur/WEB_LISTING/0/id.pro.es.image.master/f4/21/53/234264497.jpg,http://www.idealista.com/38310259
206,calle de Modesto Lafuente,1,es,{u'typology': u'flat'},Chamberí,False,0A-LUCIA-002,5,False,True,False,False,40.4368757,-3.6942904,Madrid,Almagro,False,,4,rent,"{u'hasParkingSpace': True, u'isParkingSpaceIncludedInPrice': True}",1200.0,20.0,38310241,flat,Madrid,1,False,60.0,good,"{u'subtitle': u'Almagro, Madrid', u'title': u'Piso en calle de Modesto Lafuente'}",https://img3.idealista.com/blur/WEB_LISTING/0/id.pro.es.image.master/e2/d3/96/234264322.jpg,http://www.idealista.com/38310241
207,camarena,1,es,{u'typology': u'flat'},Latina,True,A0433,7,False,True,False,False,40.3932727,-3.7551135,Madrid,Aluche,False,,1,rent,,825.0,10.0,38310242,flat,Madrid,3,False,80.0,good,"{u'subtitle': u'Aluche, Madrid', u'title': u'Piso en camarena'}",https://img3.idealista.com/blur/WEB_LISTING/0/id.pro.es.image.master/66/df/b0/234264323.jpg,http://www.idealista.com/38310242
208,paseo de la Castellana,3,es,"{u'subTypology': u'penthouse', u'typology': u'flat'}",Chamartín,True,513,17,False,True,False,False,40.4580824,-3.6883104,Madrid,Nueva España,False,,39,rent,,3900.0,14.0,38251998,penthouse,Madrid,5,False,280.0,good,"{u'subtitle': u'Nueva España, Madrid', u'title': u'Ático en paseo de la Castellana'}",https://img3.idealista.com/blur/WEB_LISTING/0/id.pro.es.image.master/6e/e0/64/233246115.jpg,http://www.idealista.com/38251998
209,barrio El Viso,3,es,"{u'subTypology': u'duplex', u'typology': u'flat'}",Chamartín,True,1766,3,False,True,False,False,40.4465286,-3.6808523,Madrid,El Viso,False,,42,rent,"{u'hasParkingSpace': True, u'isParkingSpaceIncludedInPrice': True}",3750.0,20.0,38310167,duplex,Madrid,2,False,190.0,good,"{u'subtitle': u'El Viso, Madrid', u'title': u'Dúplex'}",https://img3.idealista.com/blur/WEB_LISTING/0/id.pro.es.image.master/03/5c/0b/234263281.jpg,http://www.idealista.com/38310167
210,"calle de Ana de Austria, 5",2,es,{u'typology': u'flat'},Hortaleza,True,SCH-3D,5,False,True,False,False,40.4921636,-3.6654666,Madrid,Sanchinarro,False,,22,rent,"{u'hasParkingSpace': True, u'isParkingSpaceIncludedInPrice': True}",1200.0,10.0,38309861,flat,Madrid,3,True,115.0,good,"{u'subtitle': u'Sanchinarro, Madrid', u'title': u'Piso en calle de Ana de Austria, 5'}",https://img3.idealista.com/blur/WEB_LISTING/0/id.pro.es.image.master/c4/32/ae/234258660.jpg,http://www.idealista.com/38309861
211,Fuente del Fresno,5,es,"{u'subTypology': u'independantHouse', u'typology': u'chalet'}",,False,XA 5404,,False,,False,False,40.5931171,-3.5937848,Fuente del Fresno,,False,,40,rent,,6000.0,5.0,38310098,chalet,Madrid,5,False,1200.0,good,"{u'subtitle': u'Fuente del Fresno', u'title': u'Casa independiente'}",https://img3.idealista.com/blur/WEB_LISTING/0/id.pro.es.image.master/f8/4f/b6/234261586.jpg,http://www.idealista.com/38310098
212,"calle ALBERDI, 41",1,es,{u'typology': u'flat'},Tetuán,True,3379-2193,4,False,False,False,False,40.4680394,-3.7072007,Madrid,Valdeacederas,False,,7,rent,,700.0,13.0,37161022,flat,Madrid,2,True,55.0,good,"{u'subtitle': u'Valdeacederas, Madrid', u'title': u'Piso en calle ALBERDI, 41'}",https://img3.idealista.com/blur/WEB_LISTING/0/id.pro.es.image.master/0d/d5/73/137074881.jpg,http://www.idealista.com/37161022
213,calle Monte Umbrío,7,es,"{u'subTypology': u'independantHouse', u'typology': u'chalet'}",,False,954,,False,,False,False,40.6306,-3.58965,Ciudalcampo,,False,,24,rent,"{u'hasParkingSpace': True, u'isParkingSpaceIncludedInPrice': True}",5250.0,8.0,38309755,chalet,Madrid,7,False,630.0,good,"{u'subtitle': u'Ciudalcampo', u'title': u'Casa independiente en calle Monte Umbrío'}",https://img3.idealista.com/blur/WEB_LISTING/0/id.pro.es.image.master/1f/9f/a9/234262228.jpg,http://www.idealista.com/38309755
214,"manipa, 50",1,es,{u'typology': u'flat'},Ciudad Lineal,True,"Piso en la cancepción, Amueblado y C/ Ascensor.",1,False,True,False,False,40.4411678,-3.6447625,Madrid,Concepción,False,,15,rent,,695.0,15.0,38310128,flat,Madrid,1,True,45.0,good,"{u'subtitle': u'Concepción, Madrid', u'title': u'Piso en manipa, 50'}",https://img3.idealista.com/blur/WEB_LISTING/0/id.pro.es.image.master/82/18/67/234262243.jpg,http://www.idealista.com/38310128
215,camino de santiago,2,es,{u'typology': u'flat'},Fuencarral,True,A299,2,False,True,False,False,40.5058568,-3.6724232,Madrid,Las Tablas,False,,17,rent,"{u'hasParkingSpace': True, u'isParkingSpaceIncludedInPrice': True}",1100.0,12.0,38310124,flat,Madrid,2,False,90.0,good,"{u'subtitle': u'Las Tablas, Madrid', u'title': u'Piso en camino de santiago'}",https://img3.idealista.com/blur/WEB_LISTING/0/id.pro.es.image.master/cb/1b/f4/234262183.jpg,http://www.idealista.com/38310124
216,Getafe Centro,2,es,{u'typology': u'flat'},Getafe Centro,True,1477,2,False,True,False,False,40.3073894,-3.7260152,Getafe,,False,,2,rent,"{u'hasParkingSpace': True, u'isParkingSpaceIncludedInPrice': True}",900.0,11.0,38310141,flat,Madrid,3,False,85.0,good,"{u'subtitle': u'Getafe Centro, Getafe', u'title': u'Piso'}",https://img3.idealista.com/blur/WEB_LISTING/0/id.pro.es.image.master/dc/5e/9a/234262305.jpg,http://www.idealista.com/38310141
217,PILAR CAVERO,2,es,{u'typology': u'flat'},Ciudad Lineal,True,PILAR CAVERO,2,False,True,False,False,40.4455841,-3.6470608,Madrid,San Pascual,False,,31,rent,"{u'hasParkingSpace': True, u'isParkingSpaceIncludedInPrice': True}",1300.0,14.0,38309821,flat,Madrid,2,False,90.0,good,"{u'subtitle': u'San Pascual, Madrid', u'title': u'Piso en PILAR CAVERO'}",https://img3.idealista.com/blur/WEB_LISTING/0/id.pro.es.image.master/32/7a/5a/234259429.jpg,http://www.idealista.com/38309821
218,"calle calderón de la barca, 21",3,es,"{u'subTypology': u'independantHouse', u'typology': u'chalet'}",,False,,,False,,False,False,40.5490783,-4.0050926,Colmenarejo,,False,,33,rent,"{u'hasParkingSpace': True, u'isParkingSpaceIncludedInPrice': True}",1200.0,4.0,34673843,chalet,Madrid,5,True,300.0,good,"{u'subtitle': u'Colmenarejo', u'title': u'Casa independiente en calle calderón de la barca, 21'}",https://img3.idealista.com/blur/WEB_LISTING/0/id.pro.es.image.master/54/62/f0/167738746.jpg,http://www.idealista.com/34673843
219,barrio Argüelles,1,es,"{u'subTypology': u'studio', u'typology': u'flat'}",Moncloa,True,MON-1125,bj,False,False,False,False,40.4216777,-3.7174023,Madrid,Argüelles,False,,16,rent,,1050.0,30.0,38310097,studio,Madrid,0,False,35.0,good,"{u'subtitle': u'Argüelles, Madrid', u'title': u'Estudio'}",https://img3.idealista.com/blur/WEB_LISTING/0/id.pro.es.image.master/2e/2f/69/234261762.jpg,http://www.idealista.com/38310097
